geolocation_city,latitude,longitude
* cidade,-25.571748415488482,-49.33437407992388
...arraial do cabo,-22.969370031652062,-42.02983437523808
4o. centenario,-24.2718596772122,-53.0694333134515
4º centenario,-24.279800992315977,-53.07472322654436
abadia de goias,-16.76706286540188,-49.438089420466014
abadia dos dourados,-18.474476487136112,-47.4078365252738
abadiania,-16.193819611656007,-48.708441921091556
abadiânia,-16.193554941919746,-48.71214266034082
abaete,-19.158549321364347,-45.44627527095029
abaetetuba,-1.7230241817101857,-48.88106537387818
abaeté,-19.15638951920697,-45.44643294595805
abaiara,-7.358247021378397,-39.04581684412134
abaira,-13.250394953318787,-41.66353606594831
abare,-8.689967452179038,-39.164144068995
abaré,-8.723652728356718,-39.11459425901205
abatia,-23.304513187420707,-50.31116611469426
abatiá,-23.30473194502101,-50.30671144373594
abaíra,-13.251101562812092,-41.664659557986646
abdon batista,-27.608818306014136,-51.024885318269426
abel figueiredo,-4.953901331134197,-48.39812266389258
abelardo luz,-26.56537535604435,-52.32532803924757
abrantes,-12.830174022460263,-38.265106951363116
abre campo,-20.297406091839964,-42.4756790957994
abreu e lima,-7.9115678105724125,-34.912985990149764
abreulândia,-9.622442657403377,-49.149720300911845
abreus,-18.977746375609975,-48.269237984590916
acaiaca,-20.36291378049634,-43.14402222191236
acailandia,-4.944747265765334,-47.48256492492615
acajutiba,-11.663495576693931,-38.023852706144226
acara,-1.95913141173418,-48.1963070610334
acarape,-4.224106437897478,-38.70598562793475
acarau,-2.890381875051492,-40.113084822473105
acaraú,-2.8882738147063645,-40.07931114644638
acari,-6.436124915575116,-36.640335529330684
acará,-1.9604751722640619,-48.19888368109972
acaua,-8.21782599334695,-41.0820652414531
acauã,-8.221232314232498,-41.07740644501662
acegua,-31.774987418302466,-54.15690689012052
aceguá,-31.7245094621224,-54.11720555627117
acioli,-19.655909222582128,-40.46336507540551
acopiara,-6.094117746073023,-39.448978487408645
acorizal,-15.199589388505151,-56.36694095815544
acrelandia,-10.05360609871141,-67.0321262765574
acrelândia,-10.076679176010263,-67.05356437120881
acreuna,-17.398076270053327,-50.372516392538124
acreúna,-17.400167942106318,-50.376586471645616
acu,-5.578256162561115,-36.91491532275635
acucena,-19.129221349636005,-42.64363789453824
acupe,-12.661775303973426,-38.751328908632885
adamantina,-21.695742878741704,-51.046361833976654
adao colares,-0.9331793302279578,-48.2798854881097
adelandia,-16.41626295336215,-50.167602152545605
adhemar de barros,-22.69031468157406,-52.73463407849236
adolfo,-21.234456456293216,-49.642715645268126
adrianopolis,-24.668314396332,-48.97598733352184
adrianópolis,-24.65964054399721,-48.99171509845514
adustina,-10.536616901316743,-38.11492053385937
afogados da ingazeira,-7.759829833939789,-37.56020507437151
afonso arinos,-22.01222443747746,-43.337123104264364
afonso bezerra,-5.49563931777212,-36.53499953473234
afonso claudio,-20.075987175514054,-41.12398801850306
afonso cláudio,-20.082490603465917,-41.12193874559757
afonso cunha,-4.131088397083895,-43.32399745717131
afranio,-8.532137464656774,-41.025149765576884
afrânio,-8.515681257243429,-41.00847132643635
afua,-0.15676982154698302,-50.39281388731495
afuá,-0.15869544987536444,-50.389617235803755
agisse,-23.537328737497397,-48.54493393688767
agrestina,-8.45504693653698,-35.94651434518298
agricolandia,-5.796714998419932,-42.66518295491898
agricolândia,-5.799059562491884,-42.66179726557431
agrolandia,-27.407760672796563,-49.82991378792887
agrolândia,-27.411103305359138,-49.83103964849232
agronomica,-27.268238165766785,-49.71344880183426
agronômica,-27.269075169963727,-49.70950363604792
agua azul do norte,-6.804580607109001,-50.48391969202448
agua boa,-14.63352980919777,-50.77734654731437
agua branca,-7.000707731176696,-40.43793102457497
agua branca de minas,-16.192079815993335,-41.72616772679282
agua clara,-20.441298694740283,-52.876907318573615
agua comprida,-20.05738309692623,-48.10875095126893
agua doce,-26.99753948268607,-51.55508230054838
agua doce do maranhao,-2.8783590341287977,-42.13425890269593
agua doce do norte,-18.54173643330138,-40.984057687617096
agua fria,-11.831734131665996,-38.75602759065029
agua fria de goias,-14.972415223806214,-47.78532009005647
agua limpa,-18.076322394559124,-48.76160432422692
agua nova,-6.205206243591784,-38.291460507110884
agua preta,-8.705754163522581,-35.51654982122745
agua santa,-28.183372036296035,-52.03985047911124
agua vermelha,-21.893561999999996,-47.89098450000001
aguai,-22.05706628499538,-46.97618165238233
aguanil,-20.94218324682893,-45.387432148824516
aguas belas,-9.107676114006255,-37.11679659655613
aguas claras,-28.000303513782928,-49.17546213298624
aguas da prata,-21.939687492514494,-46.713331769849546
aguas de chapeco,-27.074925605515585,-52.985248185131
aguas de lindoia,-22.4770613558577,-46.61900307787512
aguas de santa barbara,-22.876118660843794,-49.23980523261985
aguas de sao pedro,-22.602185297395447,-47.87191829441938
aguas ferreas,-20.093397450052095,-42.62548261599632
aguas formosas,-17.083236220568644,-40.93803847275176
aguas frias,-26.881351672421005,-52.859710992167756
aguas lindas de goias,-15.72491838980516,-48.27704793087801
aguas mornas,-27.70103345965437,-48.83820955993601
aguas vermelhas,-15.645153030953056,-41.48340835828967
aguaí,-22.056483503638542,-46.975808535721654
agudo,-29.643273595312962,-53.24592556111559
agudos,-22.470717077861014,-48.98629341452371
agudos do sul,-25.9874563866239,-49.334836277897196
aguia branca,-18.985619914878125,-40.74123536977992
aguiar,-7.09301285540057,-38.17180592219051
aguiarnopolis,-6.561381193085836,-47.47434760230476
aguiarnópolis,-6.559462517002985,-47.4774869528423
agulha,-21.998815453548175,-47.49271520116097
aimores,-19.50125967590711,-41.07102364655069
aimorés,-19.49563028777582,-41.08327567250618
aiquara,-14.126271965040209,-39.889927091463356
aiuaba,-6.583338622041794,-40.13887446818398
aiuruoca,-21.978848424131762,-44.605769454482136
ajuricaba,-28.23771966641463,-53.763374972697925
alagoa,-22.171830593467934,-44.642598725792546
alagoa grande,-7.041755696576407,-35.63219332049747
alagoa nova,-7.061969027305861,-35.76440866320551
alagoinha,-8.033487263323302,-36.42359297910235
alagoinha do piaui,-7.008805214833112,-40.93730462226725
alagoinha do piauí,-7.009697630013004,-40.93801501497133
alagoinhas,-12.136744532665933,-38.42344400813102
alambari,-23.56157106605844,-47.88510054852834
albertina,-22.20122849160345,-46.615456671407614
alberto isaacson,-19.692467882083736,-45.135662412991074
alcantara,-2.3894526933161426,-44.462232805069
alcantaras,-3.583954156003647,-40.5417956284588
alcantil,-7.743232162444185,-36.0629876303929
alcinopolis,-18.325890936562413,-53.710012705921415
alcinópolis,-18.325392286030805,-53.712134200949876
alcobaca,-17.50293623343519,-39.270537988509126
alcobaça,-17.482928013888323,-39.3038088878954
alcântara,-2.3981287925329924,-44.438740786715606
alcântaras,-3.5876704639941877,-40.54564962879273
aldeia,-19.008238421936294,-41.11203382038614
aldeias altas,-4.62596764081347,-43.46730549774115
alecrim,-27.658214236288945,-54.76690473649302
alegre,-20.760206303395872,-41.53516276114849
alegrete,-29.789572584973904,-55.79128645489497
alegrete do piaui,-7.241927090093526,-40.84388228862271
alegrete do piauí,-7.241054564234952,-40.8563053064458
alegria,-25.38216744846198,-50.314823866095935
alem paraiba,-21.872452912165336,-42.693540638079725
alenquer,-1.9460951778154754,-54.73822449983298
alexandra,-25.5534229350904,-48.62752422974045
alexandria,-6.4133556570692125,-38.01396726012292
alexandrita,-19.70290819846817,-50.41424707469224
alexania,-16.082989120550724,-48.50856735927954
alexânia,-16.08639914589078,-48.50294429605729
alfenas,-21.423970169543438,-45.951363503161254
alfredo chaves,-20.627031870241968,-40.749310569372355
alfredo guedes,-22.59326209208953,-48.793596238946726
alfredo marcondes,-21.954288886597624,-51.416154391591796
alfredo vasconcelos,-21.149443547778592,-43.767193356103036
alfredo wagner,-27.70013863320932,-49.33157442341496
algodão de jandaíra,-6.9040744281326205,-36.01124478544995
algodões,-10.674079142611236,-39.05057508062291
alhandra,-7.433968779567003,-34.91044769864678
alianca,-7.59464009039324,-35.22248909430234
alianca do tocantins,-11.30477820332223,-48.9371764135414
aliança,-7.6065236797352815,-35.230632629378015
aliança do tocantins,-11.30718067563804,-48.937515427053356
almadina,-14.704574197522877,-39.637593600437214
almas,-11.567892561876574,-47.1683104339993
almeirim,-1.5275035267552195,-52.57714994793208
almenara,-16.176287602159032,-40.69302960684198
almino afonso,-6.155247530745038,-37.76818300221504
almirante tamandare,-25.333449013270272,-49.28401729149064
almirante tamandare do sul,-28.116015587988,-52.914714553089986
almirante tamandaré,-25.331719159896537,-49.28835123538913
almirante tamandaré do sul,-28.111052791742267,-52.91734552535572
aloandia,-17.730768613653673,-49.476715112055636
aloândia,-17.724938627006498,-49.48113596867425
alpercata,-18.97882641545508,-41.979683055880244
alpestre,-27.25035234287266,-53.03555485473069
alpinopolis,-20.85823704007911,-46.38672391868265
alpinópolis,-20.861700631340742,-46.3881005312071
alta alegre dos parecis,-12.131338609068512,-61.85347578961117
alta floresta,-9.902096283770888,-56.14798246464175
alta floresta d'oeste,-11.947014804296675,-61.99946134183562
alta floresta do oeste,-11.927292447340866,-61.993178631031334
alta floresta doeste,-11.936514767963192,-62.00345070550289
altair,-20.525024597395166,-49.06086757416893
altamira,-3.2066377414917957,-52.21607476388612
altamira do maranhao,-4.169239641524318,-45.48681350594832
altamira do parana,-24.79917358055336,-52.715429195588364
altamira do paraná,-24.80004256455994,-52.71550754024809
altaneira,-6.999919634947143,-39.7392994531862
alterosa,-21.2558336455043,-46.14487857042155
altinho,-8.488189811112091,-36.06023398040497
altinopolis,-21.020873569557786,-47.377170499566446
altinópolis,-21.022586478038754,-47.37841678587678
alto alegre,-18.92291329284763,-52.82776923062429
alto alegre do iguacu,-22.896711706478502,-51.890841433961405
alto alegre do maranhao,-4.214134911794691,-44.44951278413494
alto alegre do pindare,-3.7329394695563454,-45.867072298336375
alto alegre do pindaré,-3.671094031611729,-45.845548140126475
alto alegre dos parecis,-12.135037339165095,-61.85829592723606
alto araguaia,-17.31726008132974,-53.223327746417894
alto bela vista,-27.431744031945783,-51.906781127304434
alto boa vista,-11.679428518842505,-51.37675429719135
alto calcado,-20.946109999999976,-41.61999999999995
alto caparao,-20.44423852885907,-41.87048771838964
alto caparaó,-20.44164809081363,-41.86819741955752
alto do rodrigues,-5.29488246695531,-36.75812276543538
alto feliz,-29.395218045466553,-51.309959126537244
alto garcas,-16.946187011167666,-53.53123705275049
alto garças,-16.945731367928254,-53.53012239512448
alto horizonte,-14.194380211559098,-49.34015563206795
alto jequitiba,-20.426521477998413,-41.96425062201729
alto jequitibá,-20.426429502620714,-41.96403742351163
alto longa,-5.252364654310874,-42.20801055021926
alto maranhao,-20.562229075264067,-43.856807486033915
alto mutum preto,-19.274999999999977,-40.90749999999997
alto paraguai,-14.513116110118148,-56.487034573030726
alto paraiso,-14.027472742996526,-60.32705394674408
alto paraiso de goias,-14.139492062754918,-47.516851679960176
alto parana,-23.130730094832906,-52.321864300392704
alto paraná,-23.127808402796493,-52.309908679504616
alto paraíso,-14.314919296417473,-60.122041729039346
alto paraíso de goiás,-14.138701191474786,-47.517061823243935
alto parnaiba,-9.12552587116556,-45.947181513960324
alto parnaíba,-9.11113812965101,-45.93251912207106
alto piquiri,-24.03226762264084,-53.43985746757153
alto rio doce,-21.02315919884419,-43.41263491879728
alto rio novo,-19.05822235499108,-41.01879814974317
alto santo,-5.519712483344855,-38.26737385532683
alto taquari,-17.831339487997216,-53.28242914765828
altonia,-23.872348860666264,-53.893500973158545
altos,-5.037933605097156,-42.45957464672137
altônia,-23.87124983203738,-53.89421948191454
aluminio,-23.524098716525263,-47.256676322001155
alumínio,-23.52123662207714,-47.255904987131935
alvacao,-16.408132897676698,-44.21771746392958
alvaraes,-3.2110188563874753,-64.80427013726734
alvarenga,-19.417557882438125,-41.72756415518321
alvares florence,-20.32086634900235,-49.909107783225615
alvares machado,-22.076304146049957,-51.46671946199017
alvaro de carvalho,-22.083206931312755,-49.7176412466633
alvinlandia,-22.441974732310864,-49.76450313583045
alvinlândia,-22.442313053006316,-49.76294021458492
alvinopolis,-20.11150606065765,-43.066597730401426
alvinópolis,-20.098402153790886,-43.04737640845585
alvorada,-29.307385485385904,-50.974530658905394
alvorada d'oeste,-11.35023142656732,-62.28751193399715
alvorada de minas,-18.73744917819915,-43.37349462270952
alvorada do gurgueia,-8.451118499999952,-43.92315624999995
alvorada do gurguéia,-8.455556999999946,-43.978332499999965
alvorada do norte,-14.48533914978525,-46.50622379776432
alvorada do oeste,-11.33501778449655,-62.276737115089645
alvorada do sul,-22.77924534758796,-51.229786835378604
além paraíba,-21.873710577518857,-42.69373494440711
amambai,-23.090817384851363,-55.22809370379079
amambaí,-23.09837127221937,-55.225773365487875
amanari,-3.504514941264218,-39.57289793990247
amandina,-22.385330182396338,-53.594664287294876
amanhece,-18.53401304549487,-48.19629512032545
amapa,2.0537900112566634,-50.792152054234904
amapa do maranhao,-1.6732576653020135,-46.01030262739159
amapari,0.7771879222276791,-51.955832230238556
amapora,-23.095387898319984,-52.786050657616805
amaporã,-23.092848111298878,-52.79049991664669
amapá do maranhão,-1.6747728410811775,-46.01120050486437
amaraji,-8.376909914843818,-35.45189171440257
amaral ferrador,-30.874238817770845,-52.253193029298465
amaralina,-13.902455161044607,-49.40402650998531
amarante,-6.242804734400219,-42.85353104106899
amarante do maranhao,-5.550368892779593,-46.71919417707302
amarantina,-20.31150115053566,-43.69816552900801
amargosa,-13.027915958035505,-39.601691042196734
amatura,-3.366347571444517,-68.19808226751044
amaturá,-3.360578634395564,-68.19734060856122
amelia rodrigues,-12.399008114779287,-38.75668208849201
america dourada,-11.45534706517941,-41.45792194795551
americana,-22.737256111041685,-47.32369935794698
americano,-1.3043903244378463,-48.049921574413105
americano do brasil,-16.25358822328803,-49.98156896584807
americo brasiliense,-21.73283329963874,-48.10993077579758
americo de campos,-20.299632573742656,-49.73238197918518
ametista do sul,-27.36584670498762,-53.17863649948286
amontada,-3.3654681773745936,-39.83000034505478
amorinopolis,-16.620679529424258,-51.09556960647198
amorinópolis,-16.615396337069903,-51.09695599941002
amparo,-22.66181829147851,-46.74996861485433
amparo da serra,-20.50873879690439,-42.800915905257945
amparo de sao francisco,-10.129935198619389,-36.926615680686055
ampere,-25.919482425429972,-53.47426387071247
ampére,-25.92232845947279,-53.47487003092399
amélia rodrigues,-12.409339492924593,-38.74574885622104
américo brasiliense,-21.73493972579475,-48.1099810149176
américo de campos,-20.297990800863584,-49.733959948663376
ana dias,-24.303711041917182,-47.066068664780154
anadia,-9.684047221479462,-36.30329345457926
anage,-14.611423342423128,-41.136312128144475
anagé,-14.610797833111864,-41.13701921768496
anahy,-24.644865290669706,-53.13371122383854
anajas,-1.0043124828655856,-49.92184596497755
anajatuba,-3.2657824748273385,-44.61562673124349
anajás,-0.9844708415587738,-49.93890235637042
analandia,-22.12448307795462,-47.66233977037924
anama,-3.5791632887343816,-61.4047788174341
ananas,-6.370023441915632,-48.07261494935044
ananindeua,-1.3664682374065154,-48.40141600314842
ananás,-6.365802118433749,-48.075497185073445
anapolis,-16.32642881460754,-48.948840165919
anapu,-3.463680923180654,-51.20704963716403
anapurus,-3.674193550936725,-43.11039673415855
anastacio,-20.494161788265725,-55.80130487487029
anastácio,-20.487000566820704,-55.806336732309404
anaurilandia,-22.18349362904216,-52.71771123924639
anaurilândia,-22.184245074888018,-52.7191892128821
anchieta,-22.650779972900843,-44.73999794288199
andarai,-12.777115285366511,-41.27650549536144
andaraí,-12.814760684428,-41.32804859966593
andira,-23.04841133221882,-50.22989397409511
andirá,-23.04742637844343,-50.2348855238697
andorinha,-10.344702161161972,-39.830618762669246
andradas,-22.07047143353818,-46.57354819165934
andrade pinto,-22.239158249094665,-43.42344680674862
andradina,-20.899218031973824,-51.377380577639826
andre da rocha,-28.63235819903258,-51.573247145680746
andrelandia,-21.739488547871638,-44.30983691863981
andrelândia,-21.74221397669204,-44.311909773258705
andrequice,-18.25622999999996,-45.06661999999994
andré da rocha,-28.633323952779627,-51.573692583003904
angatuba,-23.495674840075946,-48.407068394255774
angelandia,-17.728946293657646,-42.27073170474983
angelica,-22.15469316484538,-53.77847188256762
angelim,-8.889457801054395,-36.284772829105734
angelina,-27.582060072304067,-48.98438664013938
angelândia,-17.72918272096108,-42.26919778724728
angical,-12.006384427285658,-44.698162626990054
angical do piaui,-6.077160299486864,-42.73579835439659
angical do piauí,-6.0902049442562705,-42.738079875812794
angico,-6.392815765591841,-47.866107210266165
angicos,-5.666031716304029,-36.60327364407801
angra dos reis,-22.99505330727889,-44.35328502084302
anguera,-12.150285458856345,-39.245960093032245
anguereta,-19.14045895574384,-44.656343884728464
angulo,-23.19322532766664,-51.91582932491551
angustura,-21.868313548258158,-42.698740442406134
angélica,-22.158754150920615,-53.77629156972292
anhandui,-20.981461451885522,-54.503718322956225
anhanguera,-18.339832546002228,-48.21937149616647
anhembi,-22.79055313296728,-48.12922837263561
anhumas,-22.296126146139574,-51.38700497454492
anicuns,-16.459840612028366,-49.96081462896285
anisio de abreu,-9.186196771845553,-43.04891895070124
anita garibaldi,-27.687250757458745,-51.128367966768735
anitapolis,-27.90431811708314,-49.12870759259421
anitápolis,-27.903363640614533,-49.1279992272229
anori,-3.7454147776740614,-61.658785623085464
anta,-22.232203929300233,-43.05266133211299
anta gorda,-28.972099031430492,-52.00750426344918
antas,-10.411637869766947,-38.327277843128506
antonina,-25.434704439196352,-48.7127535418243
antonina do norte,-6.775232323102792,-39.988140212898365
antonio almeida,-7.221787053150548,-44.1941006414621
antonio cardoso,-12.437804546717423,-39.120387808882356
antonio carlos,-25.19207382534783,-46.88574860243843
antonio dias,-19.645957369834644,-42.86753891487179
antonio goncalves,-10.57302558573597,-40.27582765702755
antonio joao,-22.190946773341075,-55.94915118985083
antonio martins,-6.213919064448228,-37.89910224097036
antonio olinto,-25.986104950861993,-50.199083172202755
antonio pereira,-20.283938203663602,-43.481873587460164
antonio prado,-28.85721477799151,-51.28458915711346
antonio prado de minas,-21.012742396079165,-42.121740926437454
antunes,-19.907807842506607,-44.698242198322056
antunes (igaratinga),-19.952891167464596,-44.705766537509696
antônio almeida,-7.218767606910639,-44.19612938299576
antônio cardoso,-12.437357096028908,-39.1206630345722
antônio carlos,-24.769809480342488,-46.548802244147154
antônio dias,-19.646763516793058,-42.86376361737888
antônio gonçalves,-10.567980916052049,-40.27579671319823
antônio joão,-22.189572460158054,-55.94924428871426
antônio martins,-6.215480534391254,-37.88836920759543
antônio olinto,-25.925960999999944,-50.133603499999964
antônio pereira,-20.302851650036125,-43.480192602708854
antônio prado,-28.854640909218407,-51.28150487705432
antônio prado de minas,-21.01891842019032,-42.110280183571945
anápolis,-16.327249365651344,-48.94869596705718
aparecida,-22.58872447592176,-45.12960134793972
aparecida d oeste,-20.450816726968945,-50.88286949879962
aparecida d'oeste,-20.454283404365263,-50.88282453060895
aparecida de goiania,-16.777094163599212,-49.27556867811581
aparecida de goiânia,-16.778499672264875,-49.27678827746013
aparecida de minas,-18.867062763128185,-48.264116980102976
aparecida de monte alto,-21.595332856177265,-48.12446105412283
aparecida de sao manuel,-22.73053188890062,-48.61471361851714
aparecida de são manuel,-22.733591606447433,-48.5945885586694
aparecida do rio doce,-18.28854874254037,-51.15799632840345
aparecida do rio negro,-9.950409822060305,-47.97527167504594
aparecida do taboado,-20.080651275371533,-51.10642297448528
aparecida doeste,-20.45510133757992,-50.88130731707086
aperibe,-21.625820347313585,-42.10482247378424
aperibé,-21.62591387155748,-42.105486188667456
apeu,-1.295252999999994,-47.978117999999995
apiaca,-21.153566062601172,-41.567118772204225
apiacas,-9.559467343178108,-57.39235920586494
apiacá,-21.15057398340369,-41.5709705731797
apiacás,-9.539548339767281,-57.39338749594591
apiai,-24.51030427642328,-48.843828618045386
apiaí,-24.51078035363957,-48.845100059912795
apicum-acu,-1.5321989889383978,-45.07954687627498
apiuna,-27.040098540929815,-49.38736340966762
apiúna,-27.036092704620092,-49.38846234523836
apodi,-5.6608569705782,-37.79745260951045
apora,-11.665688918521814,-38.09323846103476
apore,-18.963223077650238,-51.92693904530848
aporá,-11.679041195321036,-38.12718919875406
aporé,-18.96183552377371,-51.92694507718156
apuarema,-13.856428388404744,-39.744409767080825
apucarana,-23.554896617582095,-51.45635322819143
apui,-7.197132487896773,-59.8880159214852
apuiares,-3.946895188563722,-39.43151108792288
apuiarés,-3.9470552952321714,-39.431098675088016
apuí,-7.196901671946424,-59.88933924287576
aquidaba,-10.284870765298363,-37.019145177910744
aquidaban,-23.584743000000003,-51.902743499999985
aquidabã,-10.2842397486987,-37.0200328557081
aquidauana,-20.467619302049197,-55.783090950473515
aquiraz,-3.9123226523542134,-38.376434985468876
arabuta,-27.15840379469822,-52.14243275804496
aracagi,-6.851316677283107,-35.381522051431276
aracai,-19.202364153147403,-44.247919104101896
aracaju,-10.941346378601732,-37.06727810860308
aracariguama,-23.43426317013141,-47.06744872543869
aracas,-12.211395226522539,-38.202747833222865
aracati,-4.56650307165923,-37.76389038540502
aracatu,-14.417742491973552,-41.44989365700188
aracatuba,-21.20555581760857,-50.44319371467775
arace,-19.886590969076384,-40.72353893360273
araci,-11.3352608622577,-38.96194718415279
aracitaba,-21.34116243854412,-43.37755847112716
aracoiaba,-7.172421936626431,-35.75775202569453
aracoiaba da serra,-23.51503482346672,-47.60993200246676
aracruz,-19.847690429635865,-40.22863699645417
aracu,-16.35559065099166,-49.682874097524554
aracuai,-16.868831314390285,-42.07904685695032
aragarcas,-15.910714283055764,-52.23270081465407
aragarças,-15.910251232014682,-52.2317752767676
aragoiania,-16.911957011140167,-49.45104782108625
aragoiânia,-16.909374345034593,-49.44393742945677
aragominas,-7.168983860362198,-48.530337572030724
araguacema,-8.814714973312014,-49.55656341353356
araguacu,-12.928384840808661,-49.82619728689436
araguaia,-20.41550908384522,-40.64411836054274
araguaiana,-15.724665873318244,-51.8348328064225
araguaina,-7.194145689018867,-48.208708988639856
araguainha,-16.85899279055871,-53.03423527198579
araguana,-5.630770130131535,-47.72602269161831
araguanã,-6.581948699262933,-48.6440438846919
araguapaz,-15.098425662944779,-50.617515281317765
araguari,-18.647788194887667,-48.19413419921392
araguatins,-5.65028066388492,-48.121283746880216
araguaçu,-12.920932161487837,-49.82756013509299
araguaína,-7.191999417749098,-48.20998813909488
araioses,-2.8850541819643802,-41.904381270947184
araióses,-2.8896796267859806,-41.90376547482041
aral moreira,-22.95339780504423,-55.61759557539436
aramari,-12.091330630741258,-38.5003316145126
arambare,-30.912908274454868,-51.501951864682084
arambaré,-30.90775151602076,-51.49942584341603
arame,-4.889731449292038,-46.00677976876072
aramina,-20.092201099659754,-47.79068484733616
arandu,-23.136564843736075,-49.05444039853914
arantina,-21.915158982753184,-44.25360039856992
arapei,-22.673499500042812,-44.446494992228956
arapeí,-22.67445085107651,-44.446757241728356
arapiraca,-9.750889477285309,-36.65688381187583
arapoema,-7.656670780626436,-49.064301526605604
araponga,-20.6671706287898,-42.52110705532633
arapongas,-23.40888332472148,-51.43476316842283
arapora,-18.433559230520938,-49.185135872365834
araporã,-18.432791642142238,-49.18663962139803
arapoti,-24.14259751030084,-49.822367226600484
arapua,-19.915611651682244,-47.59828151341937
araputanga,-15.469445339648816,-58.34773170554175
arapuá,-19.036174854554112,-46.153894350819144
arapuã,-24.305853985864562,-51.786719040442584
araquari,-26.407378348238257,-48.758112726410026
arara,-6.827717635503339,-35.76039334973399
ararangua,-28.943097323601716,-49.48451950931831
araranguá,-28.94181378447441,-49.48200911732147
araraquara,-21.782712943567883,-48.17171498477067
araras,-22.357745988322254,-47.37554553542299
ararenda,-4.755502730423517,-40.81594208154287
ararendá,-4.752986272735911,-40.83065274022709
arari,-3.450955216573817,-44.778441915102725
ararica,-29.618288660988323,-50.92931227724572
araricá,-29.62421667965923,-50.92472848375898
araripe,-7.198190230663674,-40.14111802108165
araripina,-7.5776786858143685,-40.501362066517
araruama,-22.869309765672,-42.32125599263828
araruna,-22.048914367370756,-50.68904213237051
arataca,-15.261549087667623,-39.4167152306624
aratiba,-27.393878979446512,-52.300792088379524
aratuba,-4.419358212248046,-39.04633611936836
aratuipe,-13.074654354755138,-38.99632024881133
aratuípe,-13.069350503117775,-38.98836308898652
araua,-11.26448798023103,-37.620383981953616
araucaria,-25.58142150899515,-49.38809273708958
araucária,-25.581104277261897,-49.3882723375224
araujos,-19.944579227568433,-45.1666509178228
arauá,-11.265128131483383,-37.616756457901104
araxa,-19.592272553654016,-46.93908706424618
araxá,-19.591346944161476,-46.93912509869802
araçagi,-6.850405070147517,-35.37576025357081
araçariguama,-23.435052478132754,-47.066810945236014
araçatuba,-21.204529659652486,-50.443234271485444
araçaí,-19.199484332305058,-44.24675452107722
araçoiaba,-7.790290354442398,-35.09134850015013
araçoiaba da serra,-23.51655647819947,-47.61146966015303
araçu,-16.353879052519602,-49.685644908469484
araçuaí,-16.938596295922423,-42.13523484292538
araçás,-12.211149119713477,-38.202527893293464
araújos,-19.94455332571384,-45.16498298249607
arceburgo,-21.364132750962657,-46.93989548487439
arco verde,-29.35027093898587,-51.54791183893818
arco-iris,-21.773506095170134,-50.46472672496848
arcos,-20.28830151372826,-45.54130069344622
arcoverde,-8.418945170759914,-37.05936248444646
areado,-21.358712062618178,-46.144966597970395
areal,-22.24370799929241,-43.098549171599785
arealva,-22.029501455757217,-48.913566732203144
areia,-6.96672904710812,-35.70250563207211
areia branca,-5.3804867945217625,-37.14143838203796
areia branca dos assis,-7.421960084257878,-39.350876514145014
areia de baraunas,-7.12397776931988,-36.94639315542039
areial,-7.048617955582523,-35.92421174107332
areias,-22.58228728902745,-44.69615578487731
areiopolis,-22.67413888535585,-48.66639441224437
areiópolis,-22.672084388136987,-48.66423035343017
arembepe,-12.7621161537852,-38.18152285695949
arenapolis,-14.459992121241395,-56.84286127903487
arenopolis,-16.385489638361854,-51.55956684307419
arenápolis,-14.460796953576505,-56.84148749881078
arez,-6.198808041095981,-35.16435580993192
argirita,-21.613990095260654,-42.837217463303226
aricanduva,-17.868015877622902,-42.55610880382182
arinos,-15.920350682439091,-46.10773503284157
aripuana,-10.185682868565962,-59.46188003858033
aripuanã,-10.183186386436542,-59.45683982655064
ariquemes,-9.910527745214486,-63.03555499768101
ariranha,-21.18958834061664,-48.787717587007684
ariranha do ivai,-24.383058743843282,-51.58204772189657
ariranha do ivaí,-24.386950321234238,-51.58886947716671
armacao de buzios,-22.770156248566526,-41.9125605246326
armacao dos buzios,-22.766485578583268,-41.90944761043474
armazem,-28.259708667735325,-49.01849908041336
armazém,-28.260060126279694,-49.01394199870498
armação dos búzios,-22.765811275619587,-41.90369811661507
arneiroz,-6.325943690618894,-40.15613983579525
aroazes,-6.105346329212214,-41.78832315437302
aroeiras,-7.5462478078952335,-35.70730669344225
arraial,-6.652049127378291,-42.532280999433056
arraial d ajuda,-16.49087155319871,-39.082955365333895
arraial d'ajuda,-16.385873646040263,-39.29731978307631
arraial do cabo,-22.96354628987303,-42.05072170618841
arraias,-12.920699519644872,-46.95008122252023
arroio do meio,-29.394875869959993,-51.94517116513302
arroio do padre,-31.441525370787435,-52.41824426181239
arroio do sal,-29.540942398695503,-49.88526690603354
arroio do tigre,-29.333450448380372,-52.995051771964
arroio dos ratos,-30.08992066214609,-51.73152450330508
arroio grande,-32.23566062512627,-53.07885128177003
arroio trinta,-26.92851130780666,-51.335122525174846
arrozal,-22.594589669312334,-44.0307961050585
artur nogueira,-22.57120786162832,-47.1657687687331
aruana,-14.928390298848775,-51.07959158820119
aruanã,-14.912951003742661,-51.07936641854001
aruja,-23.4007455367667,-46.32283993145812
arujá,-23.400838999619516,-46.320127564242725
arvoredo,-27.078409010542018,-52.45510633727941
arvorezinha,-28.871905438293474,-52.180111441190874
ascurra,-26.95718708184799,-49.37627016510523
aspasia,-20.160391498830638,-50.725964383456855
aspásia,-20.161347235463325,-50.72532473305938
assai,-23.375007494886024,-50.845827902884544
assare,-6.875517170698455,-39.870908804180004
assaré,-6.872501585006234,-39.87286270188076
assaí,-23.378446836351078,-50.84565119673241
assis,-22.658497062224928,-50.41828219858366
assis brasil,-10.935105601017353,-69.55783084258934
assis chateaubriand,-24.402021416487027,-53.51740411970836
assuncao,-7.077091335231696,-36.732248704492505
assuncao do piaui,-5.864192360581453,-41.06069465744806
astolfo dutra,-21.314030738133884,-42.864233964033346
astorga,-23.236673429298886,-51.66793387228431
atalaia,-20.227736994992085,-48.615564975815225
atalaia do norte,-4.36536535897804,-70.19256688680632
atalanta,-27.421321255507692,-49.782950034762216
ataleia,-18.05876083625796,-41.1370328203773
ataléia,-18.041821044963285,-41.111806951634556
atibaia,-23.1231345192445,-46.56048198733121
atilio vivacqua,-20.925147804513188,-41.19649395129349
augustinopolis,-5.468226456611951,-47.88823718970732
augustinópolis,-5.469032311127268,-47.88870673652057
augusto correa,-1.0236028208649162,-46.637449849627615
augusto corrêa,-1.0391525314784165,-46.62137837541803
augusto de lima,-18.108587652103864,-44.26188861275599
augusto pestana,-28.515183299158387,-53.99414619029877
aurea,-27.6954931647399,-52.053414140354654
aurelino leal,-14.327923509614225,-39.368161949343616
auriflama,-20.685083174259983,-50.55462075520381
aurilandia,-16.6800504509085,-50.46526066427958
aurora,-12.764364640702667,-42.01472725220253
aurora do iguacu,-25.368938982586084,-54.158713248406784
aurora do para,-2.135055176950729,-47.55795963271966
aurora do tocantins,-12.71071035890743,-46.40543513701018
autazes,-3.581535752432196,-59.12926969963856
avai,-22.157654380802075,-49.33233161736277
avanhandava,-21.460710063924193,-49.94644521887573
avare,-23.101661110048383,-48.923743286031545
avaré,-23.099655634643035,-48.924556130100456
avaí,-22.158778750532136,-49.331077609850986
avaí do jacinto,-16.14535826868856,-40.296888430361264
avelar,-22.327926993618423,-43.41168485928766
avelino lopes,-10.141657474791318,-43.948731332030775
avelinopolis,-16.470292583954837,-49.7597428430537
axixa,-2.8372461578244654,-44.05561490724336
axixa do tocantins,-5.631981638287438,-47.76582699758015
axixá do tocantins,-5.62026600570658,-47.77409789303798
azambuja,-28.493609999999933,-49.220279999999946
azurita,-20.0081703442994,-44.47163413146476
açailândia,-4.951866257769791,-47.49415337966891
açu,-5.580040847128083,-36.91444838382109
açu da torre,-12.576809999999966,-38.00416999999993
açucena,-19.073388487504147,-42.54723470033182
babaculandia,-7.2036422139499665,-47.758757986818146
bacabal,-4.226384665835353,-44.78906394035814
bacabeira,-2.9496059539213477,-44.32932452475408
bacaxa,-22.89342680242214,-42.47013777700553
bacaxa (saquarema) - distrito,-22.897623017533686,-42.47416898392744
bacuri,-1.7280569130405292,-45.14182897643021
bacurituba,-2.70778070740857,-44.74003883695993
bady bassitt,-20.917115337770678,-49.45081883954136
baependi,-21.961660896718737,-44.889036280554215
bage,-31.32508106375457,-54.10372230962072
bagre,-1.9000030000967698,-50.209687907949565
baguacu,-20.69019808780269,-49.06794576792925
baguari,-18.871945482069954,-41.963082328814274
bagé,-31.32476979120207,-54.103316406514764
baia formosa,-6.370052320444516,-35.005351165547985
baianopolis,-12.305739641294254,-44.5388124087167
baiao,-2.792978382515453,-49.669830930747096
baixa grande,-11.96147261711341,-40.167789059567326
baixa grande do ribeiro,-7.908424365187948,-45.21088308989325
baixio,-6.729919287548336,-38.7159484459393
baixo guandu,-19.512568777088728,-41.01292625543556
baião,-2.7925289692482536,-49.668468385143676
balbinos,-21.901262418619652,-49.356838571590075
baldim,-19.35343986807516,-43.95976260855736
baliza,-16.200375508864134,-52.544147699130235
balneario arroio do silva,-28.987990864312394,-49.418953571231974
balneario barra do sul,-26.458170402325134,-48.616573643777784
balneario camboriu,-26.9901242471923,-48.633114373691896
balneario de picarras,-26.75737075199301,-48.6757379478268
balneario gaivota,-29.164036202797515,-49.59491154145488
balneario picarras,-26.762899407242198,-48.682902708890246
balneario pinhal,-30.244333143421503,-50.264653138335554
balneario rincao,-28.829233223632237,-49.23348600862618
balneário arroio do silva,-28.98419090115299,-49.41423598011292
balneário barra do sul,-26.45579966078799,-48.618649235483126
balneário camboriú,-27.004554392090018,-48.637806557824995
balneário gaivota,-29.153758480841365,-49.58470286824751
balneário pinhal,-30.239902706096302,-50.252367331387156
balneário piçarras,-26.757979725814472,-48.680837232747116
balneário rincão,-28.825454544420026,-49.23423818944559
balsa nova,-25.573495605687683,-49.62757015584016
balsamo,-20.73717749008312,-49.58219424928404
balsas,-7.531474935325155,-46.043105153123285
bambui,-20.015437694927503,-45.977098098197224
bambuí,-20.013068737157184,-45.9749506629096
banabuiu,-5.30511200872304,-38.91958010341349
banabuiú,-5.306349943865626,-38.91972509512684
bananal,-22.683450551227974,-44.31891793333043
bananeiras,-6.748088778361755,-35.63143101928753
bandeira,-15.885797701961174,-40.5622830184042
bandeira do sul,-21.730125416985874,-46.38646780180161
bandeirante,-26.767565271847264,-53.64012486945639
bandeirantes,-22.637663207376438,-50.96309939547897
bandeirantes d'oeste,-23.106241494540207,-50.377957047095386
bandeirantes do tocantins,-7.759597790519602,-48.57808559792473
bannach,-7.644858345436869,-50.35747312439622
banquete,-22.174558223906683,-42.4725765370264
banzae,-10.585968502698583,-38.6209945070079
banzaê,-10.582962046751394,-38.611497214186194
barao,-29.37666941197211,-51.498244515591665
barao ataliba nogueira,-22.381617751708013,-46.74721971320819
barao de antonina,-23.630205088449824,-49.562384664787714
barao de cocais,-19.934921581742525,-43.480723242871434
barao de cotegipe,-27.61640332999156,-52.38149717136479
barao de grajau,-6.749827164330503,-43.04311197987049
barao de juparana,-22.34448322533081,-43.68166539663932
barao de melgaco,-16.19543385236072,-55.951225309969416
barao de monte alto,-21.242845523629637,-42.23568902958982
barao do triunfo,-30.38981082627927,-51.7375178010163
barauna,-5.222309394175965,-37.49104776165379
baraúna,-5.080192966343256,-37.61927681875592
barbacena,-21.219352072707792,-43.77145736524311
barbalha,-7.310555661406291,-39.30173021019367
barbosa,-21.265672541770417,-49.95032168011177
barbosa ferraz,-24.027435144481696,-52.009024023193035
barcarena,-1.511883650645174,-48.63407331830915
barcelona,-5.949142570178054,-35.9269540288715
barcelos,-14.175602950513609,-49.07659651802956
bariri,-22.07402227056759,-48.740256216555636
barra,-11.091426618171697,-43.14545144223988
barra bonita,-22.500722815617433,-48.57659202310221
barra d'alcantara,-6.521393461333288,-42.10609175044488
barra d'alcântara,-6.520915112841016,-42.10528194236835
barra da estiva,-13.627303617775587,-41.32764243619518
barra de  santo antônio,-9.398660608000114,-35.49790109466666
barra de guabiraba,-8.420432402918046,-35.66162086682325
barra de santa rosa,-6.722975852710321,-36.05636685098979
barra de santana,-7.523320024290516,-35.998917676645306
barra de santo antonio,-9.409987656172145,-35.509963851946296
barra de santo antônio,-9.403663307936515,-35.5092164747729
barra de sao francisco,-18.750639170399417,-40.887246003526606
barra de sao joao,-22.576463482857182,-41.988423039765706
barra de sao miguel,-9.391070165867022,-35.98643393717561
barra de são francisco,-18.75198043803533,-40.882171123346154
barra de são joão,-22.571978646789894,-41.98975780323622
barra de são miguel,-9.84190156827233,-35.89795428221847
barra do ariranha,-18.66543471822127,-41.10047669413932
barra do bugres,-15.069536524574875,-57.187765718121476
barra do chapeu,-24.472272014557703,-49.02487004636343
barra do chapéu,-24.474293996115133,-49.025958171429465
barra do choca,-14.771048917315843,-40.64005424899493
barra do choça,-14.865413303405996,-40.57608720980283
barra do corda,-5.504495037749826,-45.24672365808473
barra do cuiete,-19.069147362531687,-41.53228717515228
barra do garcas,-15.878637350730372,-52.27223991765772
barra do garças,-15.879476847501985,-52.27720947710931
barra do guarita,-27.19171734348444,-53.70962055672457
barra do jacare,-23.112710960841177,-50.174506531200734
barra do jacaré,-23.11274456799206,-50.18059906256318
barra do jacuipe,-11.869524879131234,-40.21960571122674
barra do mendes,-11.81567580101508,-42.059525987376695
barra do pirai,-22.47477768374266,-43.82426188311747
barra do piraí,-22.472936891445002,-43.82562843448257
barra do quarai,-30.20846277165198,-57.55079633243586
barra do quaraí,-30.208712525020594,-57.550762654969674
barra do ribeiro,-30.298293740430665,-51.30898296329024
barra do rio azul,-27.410053168682186,-52.41363609091986
barra do rocha,-14.20880157448234,-39.60212491227082
barra do tarrachil,-13.009101177805219,-38.525978987269255
barra do turvo,-24.778404880119687,-48.49975225264679
barra dos coqueiros,-10.910546001317838,-37.028523002276344
barra feliz,-19.96379765255795,-43.45810248787213
barra funda,-27.923880079842665,-53.04198309638062
barra longa,-20.28331413855323,-43.03934543153544
barra mansa,-22.541153347532756,-44.171692237731015
barra velha,-26.660970150266746,-48.69195331731784
barracao,-26.904606336555617,-52.638158647864024
barracão,-27.207749707443874,-52.18194254082419
barrado quarai,-30.208501711996696,-57.551585016369856
barras,-4.243269940730287,-42.29404262878172
barreira,-4.29117602564577,-38.64171653349278
barreiras,-12.14829144007139,-44.96726006078332
barreiras do piaui,-9.924178531246852,-45.475758633548054
barreiras do piauí,-9.923158724894028,-45.47667825404228
barreirinhas,-2.7572296690037676,-42.83179515539183
barreiro branco,-15.388257250316318,-43.11312664230795
barreiros,-8.814489427567526,-35.19676339696069
barretos,-20.559626185890153,-48.56778512061987
barrinha,-21.190885638654162,-48.156208788295054
barro,-7.1739467925333615,-38.778493096718
barro alto,-14.108306872734502,-47.036486838232015
barro duro,-4.983033407693267,-42.453776496901504
barro preto,-14.808844881550723,-39.473220746209144
barrocas,-11.531422232554457,-39.07759493501059
barrolandia,-9.835706036446274,-48.726432154696646
barrolândia,-9.835072613844872,-48.72492732015216
barroquinha,-2.908957407617819,-41.23662682713504
barros cassal,-29.092217224881846,-52.58608560249378
barroso,-21.191206592695412,-43.975105805562876
barueri,-23.505912650749714,-46.86935863185788
barão,-29.37575161928599,-51.50138475722986
barão ataliba nogueira,-22.39078184009526,-46.74541440796751
barão de antonina,-23.629072885027497,-49.561854913131356
barão de cocais,-19.931373895590472,-43.47843903958146
barão de cotegipe,-27.620882001452433,-52.373416374090986
barão de grajaú,-6.756713999999992,-43.02560475
barão de juparana,-22.343900773196093,-43.68154304512115
barão de monte alto,-21.243894844265583,-42.236162380068045
barão do triunfo,-30.430208999999948,-51.784095499999964
bastos,-21.921257645470448,-50.73237742419827
bataguassu,-21.71564725739331,-52.422685366822215
bataipora,-22.29901857048588,-53.27314351641425
batalha,-6.445515186333755,-39.95500817704655
batatais,-20.89297727758807,-47.58505201276203
batateira,-8.56167727751966,-35.829577087670856
bataypora,-22.2967443482998,-53.269572350465914
batayporã,-22.29645313537887,-53.26884987106569
batinga,-12.933428437159534,-38.49847245588348
baturite,-4.33336700306396,-38.87871631908669
baturité,-4.330360492817438,-38.87569610628801
bauru,-22.32668283930309,-49.066682485334695
bayeux,-7.1304296161567295,-34.92421245463332
baía formosa,-6.369812033332094,-35.00819567861394
bebedouro,-20.943887781782355,-48.48609167648659
beberibe,-4.1840316734497085,-38.12315905366045
bela cruz,-3.056024276098675,-40.17141803983905
bela vista,-22.101009541889894,-56.53751823538704
bela vista da caroba,-25.88018392675312,-53.66668915514505
bela vista de goias,-16.970865848615617,-48.95050687356345
bela vista de goiás,-16.97038796595958,-48.95250689842847
bela vista de minas,-19.8280287267131,-43.09062549172085
bela vista do maranhao,-3.744962179968574,-45.26018199694684
bela vista do paraiso,-22.994489452737884,-51.197694566224264
bela vista do paraíso,-22.989293251388894,-51.19698724844358
bela vista do piaui,-7.971796118705035,-41.87155806165832
bela vista do piauí,-7.970188270525646,-41.87049460375397
bela vista do toldo,-26.27505963385652,-50.464521654672744
belagua,-3.159153890484589,-43.504593890060235
belem,-1.4525359085023029,-48.391745628873096
belem de maria,-8.625480433374818,-35.839819929281575
belem de sao francisco,-8.751275930642146,-38.963177073957354
belem do brejo do cruz,-6.188313308051183,-37.535719432641166
belem do piaui,-7.375124494010417,-40.967587745568785
belem do sao francisco,-8.72354646646816,-38.960161299442156
belford roxo,-22.73723765866894,-43.38429246281137
belmiro braga,-21.949206158065266,-43.41387968671577
belmonte,-17.186712407251026,-40.653130025331194
belo campo,-15.03719803840138,-41.260553505046296
belo horizonta,-19.833007243407014,-43.99449835304972
belo horizonte,-19.9087721380183,-43.957549373181315
belo jardim,-8.468344421987066,-36.621156679544356
belo oriente,-19.236662642809133,-42.476659940437166
belo vale,-20.4108746266098,-44.0257580869963
belterra,-2.6990375697557347,-54.92182694510641
belágua,-3.1610826235923515,-43.5049708666479
belém,-1.4338833552528472,-48.44147001464885
belém do são francisco,-8.735035194555874,-38.96030722860754
beneditinos,-5.454322625376379,-42.361210584703585
benedito leite,-7.2185315166586035,-44.55507182209266
benedito novo,-26.78186783336414,-49.377719976799675
benevides,-1.350459263347825,-48.25553277806336
benfica,-20.90514878251563,-51.36969582554069
benjamin constant,-4.416761866331178,-70.03170496203413
benjamin constant do sul,-27.515351327457267,-52.593046103938
bento de abreu,-21.27350407378086,-50.811250271092526
bento fernandes,-5.6903164211774175,-35.820092861782804
bento goncalves,-29.165160642374843,-51.514184628485836
bento gonçalves,-29.163381213950615,-51.514829663744905
bentopolis,-22.92991951439633,-51.71445908234631
bentópolis de minas,-16.374894438486837,-45.01540335193893
bequimao,-2.450916218709413,-44.787302676221735
bequimão,-2.4529382284995207,-44.78678102950627
berilo,-16.9227674102542,-42.478475011191115
berizal,-15.620342230243962,-41.74589223879504
bernardino batista,-6.452490182965374,-38.55190222505675
bernardino de campos,-23.015535401221022,-49.47743449963315
bernardo do mearim,-4.630665850384268,-44.761597381631695
bernardo sayao,-7.896481540808789,-48.90692496744047
bernardo sayão,-7.879441800924923,-48.897008900806995
bertioga,-23.81839039683,-46.080623703430746
bertolinia,-7.639522233366965,-43.95226761922226
bertolínia,-7.640285764295311,-43.953279489169454
bertopolis,-17.02933112374303,-40.55677849878938
bertópolis,-17.01972424243321,-40.55169336218939
betania,-8.227327535915133,-38.011310378119774
betania do piaui,-8.14485542911663,-40.79600665801362
betim,-19.954066182129807,-44.16696162695821
betânia,-8.271097708879145,-38.03676049981466
betânia do piauí,-8.148704222154537,-40.79484168557659
bezerros,-8.236645735574932,-35.75482087179524
bh,-19.8146364410237,-43.95277231167415
bias fortes,-21.607145357582965,-43.75713266137063
bicas,-21.718907282263544,-43.0651238881955
bicuiba,-20.081785286036098,-42.343519820945836
biguacu,-27.504870090577523,-48.64971059986323
biguaçu,-27.50469531263698,-48.64853239074064
bilac,-21.40261065132153,-50.475396356377374
biquinhas,-18.781397973596434,-45.50524614116217
birigui,-21.291485938836868,-50.33834102472449
birigüi,-21.289590496832318,-50.33711801958716
biritiba mirim,-23.57340891435705,-46.043740785145744
biritiba-mirim,-23.574570581031896,-46.040097597586566
biritinga,-11.621067370397466,-38.80797809110514
bitupita,-2.892767700852829,-41.27222373747967
bituruna,-26.159429770563225,-51.54775703701616
bizarra,-7.9511256783138675,-34.87575706855559
blumenau,-26.899545050254904,-49.08859270065109
boa esperanca,-20.676047679946194,-45.004108901411215
boa esperanca do iguacu,-25.63575597391653,-53.21454879705402
boa esperanca do sul,-21.99339356451433,-48.390385180509796
boa esperança,-20.888216535662472,-44.927499802578446
boa esperança do iguaçu,-25.636575922786463,-53.21359392893352
boa esperança do sul,-21.99577605293234,-48.38866113515574
boa hora,-4.395196894818568,-42.11476240246768
boa nova,-14.36407586448467,-40.207777739857676
boa saude,-6.154928704599536,-35.605784299305355
boa sorte,-21.84685463891488,-42.26862716198938
boa uniao,-4.5962448091645465,-42.85451673739823
boa uniao de itabirinha,-18.497173641784165,-41.30038404250193
boa união de itabirinha,-18.495928709892233,-41.30035327752185
boa ventura,-10.86800053283192,-39.136029777488226
boa ventura de sao roque,-24.877199713299973,-51.55470552377178
boa ventura de são roque,-24.880402801231426,-51.54402999963926
boa viagem,-5.124593099187569,-39.73129665419831
boa vista,2.6539282894160188,-60.351574564996895
boa vista da aparecida,-25.43788547976089,-53.40870273133837
boa vista das missoes,-27.66180964091393,-53.316760498959184
boa vista das missões,-27.660478128671887,-53.31681405644891
boa vista de minas,-18.842656993637767,-43.24709547353383
boa vista do burica,-27.669043977859744,-54.11112152682006
boa vista do buricá,-27.667119527920608,-54.1111694229936
boa vista do cadeado,-28.57759560610713,-53.813659189325975
boa vista do gurupi,-1.795312614749963,-46.291986642937815
boa vista do incra,-28.81866562020304,-53.38681136651256
boa vista do ramos,-2.968904478477716,-57.585344276743854
boa vista do sul,-29.34647313882286,-51.67305377843534
boa vista do tupim,-12.674493793127807,-40.64412066110824
boa vista dos andradas,-26.294413159893192,-48.82067181031083
boca da mata,-9.644246828974058,-36.21371252866984
boca do acre,-8.776118569514901,-67.38609416403365
bocaina,-19.46020131650734,-47.256234530654275
bocaina de minas,-22.17654212511453,-44.422894991656165
bocaina do sul,-27.743486097921124,-49.924365208577605
bocaiuva,-17.11610103098384,-43.81208541593015
bocaiuva do sul,-25.21022891904481,-49.11201801929613
bocaiúva,-17.11102183929937,-43.81657082576564
bocaiúva do sul,-25.21426886937428,-49.110192729360016
bocaína do sul,-27.745709429495815,-49.94526826921005
bodo,-5.988987926410246,-36.41243181692128
bodoco,-7.778456689884689,-39.93666448272335
bodocó,-7.780480154358987,-39.939235228215765
bodoquena,-20.550505756340815,-56.67835671179238
bofete,-23.110602286087342,-48.26247044881958
boituva,-23.2874269483057,-47.67058614671448
bom conselho,-9.176329291731037,-36.68004491131996
bom despacho,-19.740337139221076,-45.25863430864748
bom fim do bom jesus,-23.28867817281418,-47.0565400118141
bom jardim,-18.933999801148467,-42.19575464985414
bom jardim da serra,-28.327967366564394,-49.62151733262487
bom jardim de goias,-16.20204660832723,-52.17443509260943
bom jardim de goiás,-16.20087488637348,-52.174896871242375
bom jardim de minas,-21.948554985991827,-44.18654593943749
bom jardim do sul,-25.029845816815577,-50.80340415548995
bom jesus,-16.926105596813347,-47.62251901837087
bom jesus da lapa,-13.256014019878709,-43.40987581154976
bom jesus da penha,-21.018142161416037,-46.518655621662255
bom jesus da serra,-14.373890293319775,-40.50720409145588
bom jesus das selvas,-4.502895843702963,-46.85549096141207
bom jesus de goias,-18.214422477802703,-49.7547755213963
bom jesus do amparo,-19.70770771675895,-43.475249717636665
bom jesus do araguaia,-12.189028400869221,-51.57483702311272
bom jesus do galho,-19.723406801685012,-42.52341163463227
bom jesus do itabapoana,-21.134261478552055,-41.676563123423726
bom jesus do norte,-21.12656790196717,-41.67280614857445
bom jesus do sul,-26.194806599274045,-53.59867452049079
bom jesus do tocantins,-5.558029447578623,-48.54307003980823
bom jesus dos perdoes,-23.138307254533576,-46.46823470213135
bom jesus dos perdões,-23.138053602009396,-46.471401280572
bom lugar,-4.37236856382589,-45.0316429093172
bom principio,-29.47999201128739,-51.359206112516084
bom principio do piaui,-3.1890945489413034,-41.64084687872294
bom princípio,-29.486434466950357,-51.35946621670377
bom progresso,-27.55257645834928,-53.863258384577684
bom repouso,-22.470052425523438,-46.14709172537162
bom retiro,-27.79835761038368,-49.488573081200194
bom retiro da esperanca,28.008978338034268,-15.536867177679131
bom retiro do sul,-29.60072374263252,-51.93419702846097
bom sucesso,-21.2047434935364,-45.86768432346795
bom sucesso de itarare,-24.31984235466594,-49.139435252308466
bom sucesso de itararé,-24.318982780118134,-49.140622856776616
bom sucesso do sul,-26.074920777557626,-52.83520327707474
bombinhas,-27.156572530334884,-48.50320378589788
bonfim,-18.218962799752383,-45.46311181683703
bonfim paulista,-21.254045438016366,-47.81521122321068
bonfinopolis,-16.61169889827943,-48.96399857516921
bonfinopolis de minas,-16.562609629175245,-46.001435227378266
bonfinópolis,-16.619972889538836,-48.962837083074405
bonfinópolis de minas,-16.562141275069045,-45.985438885062955
boninal,-12.709313125048306,-41.83025623893904
bonito,-16.03804318964135,-49.16265401596388
bonito de minas,-15.323332390913764,-44.757899914764664
bonito de santa fe,-7.313342946555164,-38.514218041585586
bonopolis,-13.649520895534343,-49.830068884352784
bonópolis,-13.649852774530089,-49.83210913621961
boqueirao,-7.481980700141656,-36.13212790243056
boqueirao do leao,-29.302864715682684,-52.42991482611904
boqueirao do piaui,-4.48533235878779,-42.11271221667127
boqueirão do leão,-29.300057324776546,-52.42878707261995
boqueirão do piauí,-4.48533235878779,-42.11271221667127
boquim,-11.14750117685832,-37.61894393927416
boquira,-12.796852188705781,-42.711308898433195
boraceia,-22.19615762773832,-48.777749749511656
boracéia,-22.196034502860012,-48.77910074888917
borba,-4.391270069074022,-59.59364849599481
borborema,-21.62078639885551,-49.07491798906056
borda da mata,-22.262584130235293,-46.17112394057631
borda do campo,-25.392999434443606,-49.02960304918534
borebi,-22.571542526863237,-48.97174504580476
borrazopolis,-23.940551097461594,-51.58504073277295
borrazópolis,-23.939112113964942,-51.585902661321846
bossoroca,-28.727270770936773,-54.9107887611147
botelho,-22.22100814602821,-47.3001460600237
botelhos,-21.647144448066587,-46.39847215608336
botucatu,-22.882112535459964,-48.44701223244297
botumirim,-16.86530870795646,-42.99565644634915
botupora,-13.379137938870217,-42.52226591103273
botuporã,-13.379900509236787,-42.52258222509798
botuvera,-27.123474003206553,-48.970221153209835
botuverá,-27.03215378717049,-48.88627960862962
bozano,-28.35576747635835,-53.750724886687756
braco do norte,-28.273893055843004,-49.16518653647989
braco do rio,-19.404535686809385,-40.128327809178415
braco do trombudo,-27.36498017453147,-49.889378075808764
braga,-27.616563469868105,-53.74094035229738
braganca,-1.0594817318048644,-46.76854632004796
braganca paulista,-22.94842035356781,-46.54131547902729
braganey,-24.818696918017,-53.119169319626124
bragantina,-24.60938923170033,-53.616028508061255
bragança,-1.055416430386323,-46.767410249909226
bragança paulista,-22.949942717584157,-46.5415796487319
branquinha,-9.246908507097618,-36.01437848468855
bras pires,-20.85378012344979,-43.24200658245487
brasil novo,-3.3029288946406257,-52.53943255841227
brasilandia,-21.26800339096951,-52.07109537480083
brasilandia de minas,-17.00452873265765,-46.00445130598513
brasilandia do sul,-24.19706425454043,-53.52794252242622
brasilandia do tocantins,-8.335310928977552,-48.47834811623014
brasileia,-11.00988952211051,-68.7471841976057
brasileira,-4.130638188553197,-41.778505119424246
brasilia,-15.811072659488262,-47.971704877885685
brasilia de minas,-16.21376607053118,-44.43326343663188
brasilândia,-21.255384556389036,-52.03525529993214
brasilândia de minas,-17.006806551476433,-46.0122837994958
brasilândia do sul,-24.19748044523278,-53.5260827205455
brasilândia do tocantins,-8.390462548916972,-48.4864313285401
brasiléia,-10.999622670698836,-68.75236108183967
brasitania,-20.280593376469294,-50.255185629721325
brasitânia,-20.27992376887236,-50.25579885917082
brasnorte,-12.130307200299065,-57.998921444199546
brasopolis,-22.482302187197984,-45.619524319228944
brasília,-15.80995920689357,-47.9583238358459
brasília de minas,-16.22854264321944,-44.438449599682706
brasópolis,-22.473087281990843,-45.61672600019431
brauna,-21.50427602371412,-50.32234439497585
braunas,-19.053228638841134,-42.718129170680385
brazabrantes,-16.43241381438336,-49.38713209116664
brazlandia,-15.681034123716769,-48.196386392982674
brazlândia,-15.6665580045204,-48.20162900644187
brazopolis,-22.473967975486453,-45.61499756308904
brazópolis,-22.473258796168654,-45.61600201080715
braço do norte,-28.275844111802492,-49.16530585933412
braço do rio,-19.18865674952664,-40.11717391120304
braço do trombudo,-27.359381349102595,-49.88135836521179
braúnas,-19.830568780124082,-44.00955931187519
brejetuba,-20.147687282086185,-41.29158581823656
brejinho,-6.927232765857024,-36.58429346316317
brejinho de nazare,-11.018089399089433,-48.57082448171016
brejinho de nazaré,-11.016433083546023,-48.56702660191019
brejo,-3.679675005337452,-42.75322989761315
brejo alegre,-21.16764670962964,-50.18544718550434
brejo bonito,-21.1255342558629,-56.48365874003585
brejo da madre de deus,-8.119758965747844,-36.34744143794996
brejo de areia,-4.330462368659083,-45.58715125529508
brejo do cruz,-6.34754264719811,-37.49999827444089
brejo do piaui,-8.20638304669793,-42.83462700322384
brejo dos santos,-6.376879978247282,-37.825443446792654
brejo grande,-10.43007145626256,-36.46656089630383
brejo grande do araguaia,-5.717254449751337,-48.41542179867867
brejo santo,-7.48940318775888,-38.98429194756268
brejoes,-13.10272922821882,-39.793072654373695
brejolandia,-12.48500333261069,-43.960583866410175
brejolândia,-12.483972169004064,-43.9635274351195
brejão,-9.024839005157318,-36.57020044972058
brejões,-13.0936432660123,-39.84667578806543
breu branco,-3.774969015653669,-49.564171450996284
breves,-1.6827641076623432,-50.47971983783624
britania,-15.242948120042836,-51.16473824558987
britânia,-15.244768551470404,-51.16333482677467
brochier,-29.559863364757245,-51.590972043198455
brodowski,-20.988926911431516,-47.65461870355724
brotas,-22.282154968038324,-48.12510155957026
brotas de macaubas,-12.008840195810869,-42.617776178118056
brotas de macaúbas,-11.999154852435518,-42.62872601396143
brumadinho,-20.13956240878148,-44.176164704991
brumado,-14.205460464439607,-41.67111205682086
brunopolis,-27.320505126008772,-50.84118001589893
brunópolis,-27.30980689412,-50.838562432642696
brusque,-27.100857082718772,-48.91495449463352
brás pires,-20.850160691772082,-43.246699547728596
bueno brandao,-22.442842181129258,-46.34874000609386
bueno brandão,-22.441902270933717,-46.348918702411034
buenopolis,-17.874676966439896,-44.17524203029234
buenos aires,-7.7244413749003495,-35.32730107134031
buenópolis,-17.874648546962348,-44.1496166776133
buerarema,-14.95780133672066,-39.303426475448376
bugre,-20.308331335698515,-43.12830878955789
buique,-8.620704600183165,-37.148945827266424
bujari,-9.798650525705352,-68.00424668340727
bujaru,-1.5148239242263593,-48.04169020745011
burarama,-20.102756525161652,-40.562648649470844
buri,-23.799252900703568,-48.60001796917145
buritama,-21.06728750877154,-50.14440187114215
buriti,-5.466277409989158,-43.63187195322006
buriti alegre,-18.134504003035023,-49.041261874252605
buriti bravo,-5.839493016580789,-43.83427108343793
buriti de goias,-16.182178187560524,-50.433577707273614
buriti de goiás,-16.186006579457462,-50.4356586157793
buriti do tocantins,-5.321205248711932,-48.21111239878048
buriti dos lopes,-3.1774929264642604,-41.869414966186056
buriti dos montes,-5.31409589400402,-41.09558785587357
buriticupu,-4.31675727747837,-46.45803913868448
buritinopolis,-14.455764796962805,-46.436023511267834
buritinópolis,-14.455764796962805,-46.436023511267834
buritirama,-10.568619914520443,-43.7308439502781
buritirana,-5.592697988733042,-47.015022579985484
buritis,-14.18418209844692,-51.06006369316793
buritizal,-20.193516605323417,-47.70999403830059
buritizeiro,-17.364555680535215,-44.98464723646802
butia,-30.11954719733447,-51.96147500898495
butiá,-30.121370599542654,-51.967373748291294
buzios,-22.76648814019856,-41.91844962829505
buíque,-8.619424625067728,-37.15571418489471
bálsamo,-20.737083992742107,-49.58221660280139
búzios,-22.76412262970212,-41.91624371866662
caapiranga,-3.328865403622226,-61.210015540461185
caapora,-7.51697764867021,-34.91528625127436
caaporã,-7.519593362694998,-34.91512155675525
caarapo,-22.632716058142204,-54.82406587892792
caarapó,-22.632433186511214,-54.823906296075435
caatiba,-14.978179516346016,-40.40915518625452
cabaceiras,-7.489735281923311,-36.28813533220865
cabaceiras do paraguacu,-12.565061167027597,-39.18037499574727
cabaceiras do paraguaçu,-12.535939999999925,-39.19085999999993
cabeceira grande,-16.05566817673631,-47.143652358670614
cabeceiras,-15.80524926175744,-46.930584670813126
cabeceiras do piaui,-4.476650188397818,-42.30833007710929
cabedelo,-7.017697062131604,-34.83758108636304
cabixi,-13.486852444177549,-60.53788286186566
cabo de santo agostinho,-8.27613349112245,-35.017955511319194
cabo frio,-22.854990833265287,-42.026170513761414
cabo verde,-21.473823280401756,-46.39609170165559
cabralia paulista,-22.456859496746016,-49.337321230277084
cabreuva,-23.27145899781987,-47.08277837971554
cabreúva,-23.277545546294316,-47.08688205869964
cabrobo,-8.505671018021951,-39.30903462270699
cabrobó,-8.512089876468657,-39.3094001076498
cabrália paulista,-22.45527504789832,-49.338378047006934
cacador,-26.779161148380975,-51.01114985685163
cacapava,-23.102906919560247,-45.70562213632431
cacapava do sul,-30.51447093665144,-53.48837668297486
cacaratiba,-17.257499999999936,-43.043609999999944
cacarema,-16.042146600041324,-43.55337281099699
cacaulandia,-10.338008379947562,-62.90938921854367
cacaulândia,-10.342302783748053,-62.89542006287164
cacequi,-29.883498364402595,-54.82633070054313
caceres,-16.065476759598656,-57.686173488122066
cachoeira,-12.59626102465988,-38.96863572581739
cachoeira alegre,-21.23701663907592,-42.30685711653731
cachoeira alta,-18.731116778352217,-50.95508760157416
cachoeira da prata,-19.52424896323175,-44.4518578727129
cachoeira de goias,-16.667508466343946,-50.646354573613536
cachoeira de goiás,-16.667409369495473,-50.644746196609496
cachoeira de minas,-22.35581397080512,-45.782334566969496
cachoeira de pajeu,-15.963691903325829,-41.48928576054789
cachoeira de pajeú,-15.958116228652914,-41.48512527679569
cachoeira de piria,-1.7645177662257043,-46.54153000205609
cachoeira de santa cruz,-21.70276794062497,-43.43829803268959
cachoeira do arari,-1.0132279577706589,-48.961975292684755
cachoeira do brumado,-20.39476345719793,-43.27792861411474
cachoeira do campo,-20.338073014062612,-43.682570702151025
cachoeira do piria,-1.7575178354696013,-46.54430674407903
cachoeira do piriá,-1.8613629989624711,-46.48432591182498
cachoeira do sul,-30.0339629711289,-52.90011140441513
cachoeira dos indios,-6.926267395956543,-38.68034156893037
cachoeira dos índios,-6.927813744793552,-38.67452910218058
cachoeira dourada,-18.512233267031846,-49.49258708275883
cachoeira paulista,-22.66577382523548,-45.009051684655034
cachoeiras de macacu,-22.473070511690572,-42.658132957388005
cachoeirinha,-29.123611680967173,-50.55935785590111
cachoeiro de itapemirim,-20.846480708091182,-41.126185329481075
cacimba de dentro,-6.641588616071431,-35.79174833832887
cacimbas,-7.211424306162443,-37.05905566831004
cacimbinhas,-9.40118505641386,-36.98270903907734
cacique doble,-27.77216255393769,-51.66196048031398
cacoal,-11.43225261490951,-61.450647156268566
caconde,-21.528683722343338,-46.64505089436832
cacu,-18.567358743260804,-51.134707472725985
cacule,-14.500962656882683,-42.22340157700115
caculé,-14.502339281660417,-42.22199273300671
caem,-11.121504876547021,-40.37891560895317
caetano mendes,-24.62300449999998,-50.64059112499999
caetanopolis,-19.30394914528042,-44.40840204890503
caetanos,-14.340477197018577,-40.907727152167915
caetanópolis,-19.301558338263654,-44.41758891755679
caete,-19.88417534591237,-43.66472664657098
caetes,-8.77528604901824,-36.62542247309882
caetite,-14.063922388006691,-42.48750601198863
caetité,-14.064198216919978,-42.48779167746478
caeté,-19.88632520489302,-43.66560591471528
caetés,-8.77291947969472,-36.62397850719388
cafarnaum,-11.687021586135383,-41.46565830888451
cafe,-20.771505660340384,-41.53560726330037
cafeara,-22.790333812014378,-51.71560039329485
cafelandia,-22.943943049148505,-51.10756082358119
cafelândia,-22.816669066051727,-50.94047495020115
cafezal do sul,-23.904122234119335,-53.51358724176113
caiabu,-22.016089191109963,-51.23595661934661
caiana,-20.697899484749243,-41.922451276616826
caiaponia,-16.95693459398332,-51.813499923367715
caiapônia,-16.95544198689595,-51.81414050181624
caibate,-28.28976769026123,-54.639814352141535
caibaté,-28.29234607323418,-54.64068231252179
caibi,-27.07434622803875,-53.24935701690008
caicara,-17.45028331173394,-45.525713764426875
caicara do norte,-5.063401589904886,-36.05169862426159
caicara do rio do vento,-5.758777020528164,-36.00117023242199
caico,-6.4643598376771605,-37.09365860363602
caicó,-6.461877382762302,-37.092893791688184
caieiras,-23.365135261940797,-46.73566482431409
cairu,-13.484783183416193,-39.02506035910309
caiua,-21.83180213684323,-51.989949181786905
caiuá,-21.831168686985563,-51.991048104441255
caiçara,-27.275169134518997,-53.4324284338153
caiçara do norte,-5.063287095071034,-36.04941731658721
caiçara do rio do vento,-5.7585654452271,-36.002305965220046
cajamar,-23.369586747930345,-46.84232153418722
cajapio,-2.8762657761064014,-44.672934084080396
cajari,-3.321816931557347,-45.014888927611935
cajati,-24.728198850320755,-48.11280440454567
cajazeiras,-6.887745156328405,-38.558942508879
cajazeiras do piauí,-6.794131282002256,-42.39348579829666
cajobi,-20.877875377557153,-48.810962489400225
cajueiro,-9.398762700999793,-36.14695694637472
cajueiro da praia,-2.926654869129684,-41.3475617033025
cajuri,-20.788628855033426,-42.79602770750053
cajuru,-21.274432564825165,-47.305476221914155
calcado,-8.742211822276422,-36.33608799281209
calcoene,2.496281545182123,-50.9521241058562
caldas,-21.913852845765746,-46.39241187788379
caldas brandao,-7.161965454299921,-35.34996167963896
caldas novas,-17.739423770726262,-48.619852631148106
caldazinha,-16.714290709454747,-49.0009401582621
caldeirao grande,-11.107471772485226,-40.07027331427583
caldeirao grande do piaui,-7.33296509657564,-40.63725614125087
caldeirão grande,-11.107656116962836,-40.07087143866794
caldeirão grande do piauí,-7.330757405737734,-40.63549818681714
calheiros,-21.01608698830817,-41.71691388904984
california,-23.66537496878723,-51.35673313653059
california da barra,-22.282201032814992,-43.932875065398754
california da barra (barra do pirai),-22.467331109006007,-43.82941875655762
califórnia,-23.666215146095226,-51.355959906810405
califórnia da barra,-16.924394095365948,-43.28947808933714
calixto,-19.25538608847936,-41.15222939716074
calmon,-26.602931196443897,-51.099089272478885
calumbi,-7.9393452387802625,-38.15328763426178
camacan,-15.41435013054077,-39.49559371209774
camacari,-12.701748042473287,-38.32394334765692
camacho,-20.62674426960462,-45.15581132546861
camalau,-7.89058801791973,-36.82454113285508
camalaú,-7.89086686867335,-36.8260700712358
camamu,-13.949892230855662,-39.11166935758068
camanducaia,-22.756599739046813,-46.13889665947566
camapua,-19.534290220752045,-54.0423870570323
camapuã,-19.537929306701805,-54.04254539458643
camaqua,-30.853336771294742,-51.80821362811721
camaquã,-30.857715935460455,-51.81015042062675
camaragibe,-8.009755163207393,-34.989413061238125
camargo,-28.589473628212346,-52.204321869848215
camaçari,-12.708884018597253,-38.32125391114315
cambara,-23.041490931290042,-50.0755770168954
cambara do sul,-29.043602814407578,-50.1391711723774
cambará,-23.04177395379153,-50.07407289382531
cambará do sul,-29.093093200091708,-50.17187397968077
cambe,-23.287233452139443,-51.25804335403709
cambiasca,-21.714719999999943,-41.924999999999955
cambira,-23.60488886544814,-51.57907045278063
camboriu,-27.020601318443344,-48.65311819828225
camboriú,-27.0173453899278,-48.65465206650809
cambuci,-21.57202833929061,-41.910210193163074
cambui,-22.61214864614523,-46.05829967340821
cambuquira,-21.85432094379683,-45.297227267821185
cambuí,-22.609700986558018,-46.057024742703106
cambé,-23.28869429578679,-51.254660260305116
camela,-8.513416771244213,-35.12499301620093
cameta,-2.2465471311053613,-49.49886728082161
cametá,-2.2737965843569583,-49.49131888151158
camocim,-2.904249579841246,-40.84632530300268
camocim de sao felix,-8.359472138121408,-35.76205628537854
camocim de são félix,-8.36406646604207,-35.762745399966335
campanario,-18.239938597261453,-41.728069281393715
campanha,-21.834793738633508,-45.40188042460609
campanário,-18.24029406795396,-41.727992507265284
campestre,-19.977199175460914,-44.80670278959838
campestre da serra,-28.78856158381966,-51.09526360192388
campestre de goias,-16.762699452853532,-49.69590057519049
campestre do maranhao,-6.2157015305059025,-47.289609616235055
campestre do maranhão,-6.1723706469913076,-47.36794812985496
campina da lagoa,-24.59241160657905,-52.80415320094136
campina das missoes,-27.98624626596528,-54.8410931923592
campina das missões,-27.99164285550613,-54.84018442479804
campina do monte alegre,-23.576779040959234,-48.44621063221949
campina do simao,-25.11099207263434,-51.79604793071909
campina do simão,-25.10764471808191,-51.808328184575416
campina grande,-7.230652881654887,-35.8890788494615
campina grande do sul,-25.34239806590039,-49.086042958361304
campina verde,-19.53430181412056,-49.502094565095575
campinacu,-13.80138087513665,-48.56655743597762
campinal,-22.863360463031587,-47.05542146591886
campinapolis,-14.456760631884022,-52.82781801515335
campinas,-22.900861066020287,-47.068536074738404
campinas do piaui,-7.658647247829761,-41.88132840772074
campinas do piauí,-7.661366480036538,-41.88162294178604
campinas do sul,-27.71786642064481,-52.62398227507844
campinaçu,-13.817835221019234,-48.567006808366415
campinorte,-14.312747501518933,-49.153687621017596
campinápolis,-14.35472014711203,-52.86719984352721
campo alegre,-16.807708448347295,-41.91497558421787
campo alegre de goias,-17.63440177971588,-47.776588945865335
campo alegre de lourdes,-9.512052702077947,-43.02384838820656
"campo alegre de lourdes, bahia, brasil",-9.517592726528802,-43.01436628952043
campo alegre de minas,-19.099162775692967,-41.03380534053093
campo alegre do fidalgo,-8.377891550634898,-41.835686326509794
campo azul,-16.50572829409644,-44.81167779782739
campo belo,-20.89376471416788,-45.275613114778345
campo belo do sul,-27.899803209860394,-50.75957818767599
campo bom,-29.677045008814133,-51.06040344017742
campo bonito,-25.03348379417203,-52.992045488716144
campo do brito,-10.750394350095682,-37.49323013983065
campo do meio,-21.1094994554569,-45.829834338383606
campo do tenente,-25.98558970418453,-49.67827341565765
campo ere,-26.39567229521367,-53.08068945665564
campo erê,-26.393683213907384,-53.079150686659
campo florido,-19.762537025494588,-48.57469771363479
campo formoso,-10.504091563927062,-40.326104202709594
campo grande,-20.443109590578032,-54.57693328944182
campo grande do piaui,-7.152854761630525,-41.04754169427389
campo grande do piauí,-7.132673097690731,-41.03475487467024
campo largo,-25.459520177836527,-49.525441888964274
campo limpo de goias,-16.29537410009492,-49.09070420649234
campo limpo paulista,-23.212216767342458,-46.77576640852018
campo magro,-25.375606922660342,-49.3860112966698
campo maior,-4.830288661012602,-42.16987422607917
campo mourao,-24.037944861514262,-52.37745670216547
campo mourão,-24.038735460984903,-52.37762608578434
campo novo,-27.677040247147946,-53.80714061237943
campo novo de rondonia,-10.510701096008964,-63.70717453488786
campo novo de rondônia,-10.569793943386639,-63.62269401887364
campo novo do parecis,-13.726726915764589,-57.90834821580807
campo redondo,-6.240326172046619,-36.18401079847696
campo verde,-15.550756301366505,-55.17606019140091
campos altos,-19.696757570955118,-46.16985512823507
campos belos,-13.037163549271618,-46.769693978198795
campos borges,-28.88623758899126,-53.00127999192428
campos de cunha,-22.953407124303716,-44.84849926748931
campos de julio,-13.723196103777836,-59.25822589137534
campos de júlio,-13.722982227998086,-59.259210868407465
campos do jordao,-22.736601126761766,-45.58673471592272
campos do jordão,-22.737363079498273,-45.58474460319417
campos dos goytacaze,-21.77725700490737,-41.33030736721621
campos dos goytacazes,-21.76135912690402,-41.320679531016374
campos gerais,-21.236788668103667,-45.75998487562616
campos lindos,-7.988859504139729,-46.80145012945478
campos novos,-27.39905523530042,-51.225564957350315
campos novos paulista,-22.60526913736948,-49.99964115870175
campos sales,-7.07508607869851,-40.37356961584001
campos verdes,-14.261393536187512,-49.6569818721224
camutanga,-7.408333948577804,-35.27303670858118
cana verde,-21.020264758851926,-45.18247902609396
canaa,-20.687007685825304,-42.61988165672457
canaa dos carajas,-6.52339905384396,-49.876145609317994
canabrava,-17.396001945768713,-45.83278544648309
canabrava do norte,-11.068413678505955,-51.833055069606004
cananeia,-25.00936107761869,-47.93181797896551
cananéia,-25.009044270580617,-47.9324630114282
canapi,-9.115906531545123,-37.60678416721471
canapolis,-18.032105768182603,-48.58731112135189
canarana,-13.27646523276518,-50.74240216479975
canas,-22.704304183920105,-45.05444050515167
canavieiras,-15.673596172003469,-38.949304954144246
canaã,-20.68732672386543,-42.621211261905664
canaã dos carajás,-6.531659134980588,-49.860864976979855
candangolandia,-15.857805951954695,-47.952410009499445
candangolândia,-15.847897083411986,-47.95187053626267
candeal,-11.807405855467286,-39.11979421469924
candeias,-14.586235886456613,-40.13868348257913
candeias do jamari,-8.822748971584446,-63.64934899789283
candelaria,-29.669682671094094,-52.78900011505097
candelária,-29.675343846753183,-52.78987833724409
candia,-17.656446079679004,-45.43053856476268
candiba,-14.408790876280296,-42.86475011859189
candido de abreu,-24.577047715097326,-51.331617397106264
candido godoi,-27.949268719695553,-54.75186685759685
candido mendes,-1.4726246367314046,-45.72691769273456
candido mota,-22.75086500544471,-50.38549302101581
candido rodrigues,-21.324062915270492,-48.632305243505364
candido sales,-15.483865878376696,-41.24363688548138
candiota,-31.501509398200973,-53.69073915188291
candoi,-25.558575361796557,-52.032953685876464
candói,-25.569537209913303,-52.049816836645064
canela,-29.360522517268677,-50.810289331990454
canelinha,-27.265701646122317,-48.768017636926956
cangas,-19.53942266541352,-55.214986140353986
canguaretama,-6.386413628438627,-35.133344196983515
cangucu,-31.395018960733974,-52.67732125482771
canguçu,-31.399544332209654,-52.67556628292411
canhoba,-10.137258500117035,-36.971360202093514
canhotinho,-8.878666516371505,-36.19774529463278
caninde,-4.355923934309389,-39.31436446037831
caninde de sao francisco,-9.675251100452389,-37.801743660019056
canindé,-4.356001624621591,-39.31455249088679
canindé de são francisco,-9.661574599426707,-37.788026318976186
canitar,-23.005341141454814,-49.78339218605727
canoas,-29.921655879098733,-51.174495237165324
canoinhas,-26.17842967715642,-50.39172922868352
cansancao,-10.669593426966527,-39.49763833288145
cansanção,-10.668507701674848,-39.49768813253392
cantagalo,-22.542667630436807,-44.65362983974078
cantanhede,-3.6351632526408326,-44.37799275723666
canto do buriti,-8.110065701117277,-42.946757250450396
canudos,-9.89997094082649,-39.03349393874103
canudos do vale,-29.323591873748004,-52.23394908710184
canutama,-6.530684341316176,-64.3873912690169
canápolis,-17.467760307638603,-48.08903768361581
capanema,-14.390598404721556,-50.751243740971724
capao alto,-27.937435798725488,-50.51100141093332
capao bonito,-24.001794113002507,-48.34750135709458
capao da canoa,-29.73220533016039,-50.006646838997334
capao da porteira,-30.092809899462708,-50.694388328298245
capao do cipo,-28.945960165220942,-54.56428639365059
capao do leao,-31.767720904441926,-52.4632155591324
capao novo,-29.658192404570695,-49.959193617021384
caparao,-20.523716387733856,-41.906406757978026
caparaó,-20.524757885584137,-41.90591330128827
capela,-9.91618156107798,-36.5303085859369
capela de santana,-29.681261639690145,-51.32123360758381
capela do alto,-23.477943216104887,-47.73925651476335
capela do alto alegre,-11.671553500430177,-39.835957422492854
capela nova,-20.925626456194642,-43.620797706959266
capelinha,-17.69608108165854,-42.5164573465004
capetinga,-20.621099796616182,-47.05516573685891
capim,-6.898694295025135,-35.19935978722208
capim branco,-19.55004677480242,-44.133736198648535
capim grosso,-11.378158125172407,-40.01174351658424
capinopolis,-18.68287023980179,-49.57011707631635
capinzal,-27.351864119163903,-51.60580689056574
capinzal do norte,-4.717117343720794,-44.32668695525109
capinópolis,-18.686176644945526,-49.56861866140127
capistrano,-4.4677305288880484,-38.901324610902336
capitao,-29.27024489370997,-51.98852527830797
capitao andrade,-19.070634881218112,-41.86335575381556
capitao de campos,-4.45825996521585,-41.94160928615899
capitao eneas,-16.556334599661003,-43.74902169196164
capitao gervasio oliveira,-8.495310940467416,-41.84268941803545
capitao leonidas marques,-25.486460684052613,-53.603602567041534
capitao poco,-1.7549561156434506,-47.0680835732846
capitolio,-20.61641031411672,-46.046000982398496
capitão,-29.271369968485896,-51.987859392004
capitão andrade,-19.072389025368725,-41.863002586439066
capitão de campos,-4.458795838294562,-41.93978677660782
capitão enéas,-16.32701018790475,-43.71181476751993
capitão gervásio oliveira,-8.496733501277763,-41.817003310362196
capitão leônidas marques,-25.484931969794435,-53.586804205068354
capitão poço,-1.7495128979656913,-47.06245434123174
capitólio,-20.617328151840944,-46.047565153118086
capivari,-22.99748379485895,-47.50572510550505
capivari de baixo,-28.443636588435925,-48.95654041508624
capivari do sul,-30.143817941020927,-50.51140179879618
capixaba,-10.571229718698472,-67.67442149448621
capoeiras,-8.738654560849152,-36.627217324784084
caponga,-4.0482945000000035,-38.18788199999999
caporanga,-22.715829205576444,-49.571659661655474
caputira,-20.172671360072147,-42.271083557003195
capão bonito,-24.00267965532038,-48.3460834675005
capão da canoa,-29.73859091528843,-50.01044766867447
capão do cipó,-28.923561,-54.55562625
capão do leão,-31.762761897593805,-52.455986162812565
caraa,-29.791885386951975,-50.440543041732774
carabucu,-21.21637995297966,-41.58989687408153
carabuçu,-21.215843207560308,-41.59515776729577
caracarai,1.8105256732349897,-61.13374135900065
caracaraí,1.8096025650414025,-61.133328340215485
caracol,-17.307749040611526,-51.97024811081576
caraguatatuba,-23.637327711077546,-45.41383022299347
carai,-17.187632312940416,-41.69761373976817
caraiba,-7.8035558930517235,-37.79343877138455
caraibas,-14.68685813875673,-41.26788652188727
carajas,-18.941871832888857,-46.96770477985247
carambei,-24.947031486052335,-50.119485398849406
carambeí,-24.950620758562923,-50.11753495694063
caranaiba,-20.87412230335525,-43.73718950300095
caranaíba,-20.87304330711628,-43.7388964862376
carandai,-20.949625817717454,-43.80421169801906
carandaí,-20.95220289019085,-43.80560078549871
carangola,-20.732516031917744,-42.029943765152524
carapebus,-22.190683580786995,-41.65744656238283
carapicuiba,-23.545578557335205,-46.83877557576887
carapicuíba,-23.544873338924642,-46.838708084114174
caratinga,-19.78687714929477,-42.13746238135896
carauari,-4.799300247556453,-66.78594378843195
caraubas,-5.790224475947397,-37.55789839845081
caraubas do piaui,-3.476601906534348,-41.84226911523521
caravelas,-17.70676566862526,-39.31012880895912
carazinho,-28.29124464593788,-52.79025576343902
caraá,-29.791349353179076,-50.43409834778823
caraí,-17.186972062864257,-41.69692434313765
caraíbas,-14.724405861180808,-41.260887876945
caraúbas,-5.788437308087376,-37.55964152953034
carbonita,-17.535583399039037,-43.0160204416974
cardeal,-12.99385222547416,-38.480881846108396
cardeal da silva,-11.952583147163717,-37.94737339060959
cardoso,-20.0809418061668,-49.912693177035
cardoso moreira,-21.492932392812836,-41.61514241929222
careacu,-21.88545025240927,-45.86007599160712
careaçu,-22.04157893681071,-45.6962661372466
careiro,-3.819210265400676,-60.361053404421185
careiro da varzea,-3.195967499999992,-59.82835274999999
cariacica,-20.330278597042394,-40.38342691295593
caridade,-4.2333412630855785,-39.199808064870076
caridade do piaui,-7.732629803957502,-40.988970448652886
caridade do piauí,-7.732265774697071,-40.98830690485772
carinhanha,-14.294697803582954,-43.770479430033916
carira,-10.359818114055827,-37.704927879705146
carire,-3.9496359103551444,-40.47633166402361
cariri do tocantins,-11.905019372781869,-49.16622321648179
caririacu,-7.040907677651892,-39.289025679358424
caririaçu,-7.038249513099338,-39.28121086130753
cariré,-3.947311229692999,-40.47299254916692
carius,-6.5370472496859575,-39.49660967561537
cariús,-6.53350021765372,-39.495267217694284
carlinda,-9.966516824949288,-55.823672404078074
carlopolis,-23.427714770710708,-49.717845591918994
carlos barbosa,-29.29807174227816,-51.50260091138188
carlos chagas,-17.65699802876698,-40.871312653284875
carlos gomes,-27.71592351486283,-51.91482198078577
carlópolis,-23.42771424830439,-49.71916631568736
carmesia,-19.086708905310868,-43.141261823964065
carmo,-21.932343210229543,-42.60743229249633
carmo da cachoeira,-21.461008557533113,-45.22054433595689
carmo da mata,-20.55966811821635,-44.869172864848785
carmo de minas,-22.12124328966364,-45.124733823993424
carmo do cajuru,-20.2690173748538,-44.82236669977695
carmo do paranaiba,-18.997713864876317,-46.30841177892603
carmo do paranaíba,-18.996879224260635,-46.30644429585237
carmo do rio claro,-20.971610978511638,-46.12132992617946
carmo do rio verde,-15.356895077264507,-49.702355189364916
carmolandia,-7.035135193916087,-48.396199949532765
carmopolis,-10.648555961295953,-36.98829027544778
carmopolis de minas,-20.539386548093034,-44.63621714014993
carmésia,-19.085443785510886,-43.13861018153424
carmópolis,-10.647456706828471,-36.98499502677436
carmópolis de minas,-20.53835372147544,-44.636245668916835
carnaiba,-7.806767112109437,-37.79360013147656
carnaiba do sertao,-9.589271582271097,-40.425445511064936
carnauba dos dantas,-6.5569732071615725,-36.59287203593068
carnaubais,-5.337733879077279,-36.83630689504175
carnaubal,-4.164764019421489,-40.938723359086154
carnaubeira da penha,-8.32090718548556,-38.743239807064
carnaíba,-7.806819608368857,-37.793723689281464
carnaúba dos dantas,-6.556498300128969,-36.591074263873686
carneirinho,-19.711556293391382,-50.72142741924669
carneiros,-9.48430048268659,-37.37451590142347
caroebe,0.8626790805309797,-59.64092950238196
carolina,-7.331741136185456,-47.468650883457435
carpina,-7.845769238796547,-35.253374127010126
carrancas,-21.4891348193248,-44.64257757939084
carrapateira,-7.037671455372667,-38.344700638194816
caruara,-18.432896286569697,-43.57730621812254
caruaru,-8.280838827967244,-35.971427841800576
carutapera,-1.2040726572700915,-46.02104434904004
carvalhopolis,-21.778374507705557,-45.84282812821215
carvalhos,-22.001572028993724,-44.46190009559517
carvalhópolis,-21.779779228010206,-45.84279839512811
casa branca,-21.78919038999746,-47.07232828087682
casa grande,-20.793551331647176,-43.93137006997755
casa nova,-9.217165815814731,-40.9804695215012
casca,-28.565730832865242,-51.97461945303223
cascalho rico,-18.605312312450106,-47.88337089557223
cascavel,-24.447416205682504,-53.08875663193512
caseara,-9.271498529261462,-49.95669759860167
caseiros,-28.270965774313773,-51.69684129876076
casimiro de abreu,-22.48761407412746,-42.19001955552339
casinhas,-7.754587487261022,-35.718990928214886
casserengue,-6.780540392896977,-35.819150183307066
cassia,-20.58193766012268,-46.92229967130651
cassia dos coqueiros,-21.28182125375187,-47.1688536049792
cassilandia,-19.107736240551983,-51.76052328560582
cassilândia,-19.116136604987965,-51.73291716318597
castanhal,-1.2920186637442292,-47.92688708882178
castanheira,-11.137907474880812,-58.61019611625611
castanheiras,-11.428080744522138,-61.95102518259382
castelandia,-18.089140556314895,-50.22158475331244
castelo,-20.605356378108795,-41.20519636049413
castelo do piaui,-5.318613129045991,-41.551434065809815
castelo do piauí,-5.323191492293218,-41.54829966516373
castelo dos sonhos,9.049062717536653,-25.170903455030523
castelândia,-18.088616254968382,-50.22165668705296
castilho,-20.86684715929091,-51.49176549174564
castro,-24.794469907209375,-50.000403661641805
castro alves,-12.766478986953373,-39.42239071000822
cataguarino,-21.29435692501821,-42.728764783740445
cataguases,-21.387342415899237,-42.694497666323876
catalao,-18.16749572318077,-47.94370036018741
catalão,-18.16757317016181,-47.94482963703035
catanduva,-21.136969013718122,-48.97216028148744
catanduvas,-26.688397182476564,-51.965903064138445
catarina,-6.13321403407986,-39.87786568296309
catas altas,-20.075592726735945,-43.40756665036379
catas altas da noruega,-20.691445478645058,-43.49812571455393
catende,-8.665425346706636,-35.72603676583346
catigua,-21.052751575607072,-49.05992372692448
catiguá,-21.050897318016336,-49.05938528233668
catingal,-14.045718833379512,-40.562250676629375
catingueira,-7.124193,-37.60752375
catole do rocha,-6.357868390636635,-37.715966957502125
catolândia,-12.313912429551806,-44.85954730196275
catolé do rocha,-6.342542189117103,-37.74399462672429
catu,-12.36384099378348,-38.38186888846312
catu de abrantes,-12.857008533226994,-38.28533203366099
catucaba,-23.246340095815523,-45.20372634808252
catuipe,-28.25233099037072,-54.01363959851671
catuji,-17.107739882418418,-41.662240080488665
catunda,-4.649576257363721,-40.19989030479977
catune,-20.92211345265376,-42.150434989863804
catuni,-16.240050839893893,-43.274954855461424
caturai,-16.446010677483436,-49.495446674302535
caturama,-13.33127591278641,-42.29352897039457
caturaí,-16.443507612119927,-49.49298655597644
catuti,-15.362600130691982,-42.96827364800461
catuípe,-28.25514375191825,-54.012135114241374
caucaia,-3.737584371922988,-38.65032917297564
cavalcante,-13.794652877169758,-47.458383628644775
caxambu,-21.980804817132228,-44.93169566840271
caxambu do sul,-27.15705278730277,-52.88536980002553
caxias,-4.865914904365275,-43.35559678001898
caxias do sul,-29.163658257979264,-51.17937527854717
caxingo,-3.42026003871809,-41.89405656910353
caçador,-26.779838073894236,-51.009670047653856
caçapava,-23.101386979138287,-45.70875939315736
caçapava do sul,-30.51147913688715,-53.492063554462064
caçarema,-16.04073692256279,-43.55496939242047
caçu,-18.56248157099837,-51.13629295879494
caém,-11.111341292896856,-40.39944830856469
ceara mirim,-5.650088359026337,-35.42715178368425
ceara-mirim,-5.63596765719896,-35.4218118614559
ceará-mirim,-5.64274515460203,-35.42734040708436
cedral,-19.95887117079389,-49.03193960099814
cedro,-6.931371659314862,-39.11329628370982
cedro de sao joao,-10.251665065397724,-36.88289550938358
cedro de são joão,-10.249084572265087,-36.88204479052135
cedro do abaete,-19.147111404098304,-45.714540087226354
ceilandia,-15.823495045038014,-48.11658874067232
ceilandia norte,-15.804338904288864,-48.146832143798996
ceilândia,-15.8277092813741,-48.117437998809976
celina,-19.851581656301253,-40.57072169300674
celso ramos,-27.633202051670853,-51.337239601534826
centenario,-16.481397350539844,-49.20375562637031
centenario do sul,-22.821187569318734,-51.594749272610315
centenário do sul,-22.822912558149095,-51.59652612314578
central,-11.136698466979885,-42.10666428467148
central de minas,-18.76592315062121,-41.30243983466087
central de santa helena,-18.276242309677663,-42.997849388042
central do maranhao,-2.1948150066912238,-44.82799173786903
centralina,-18.585274922169962,-49.20061955483061
centro do guilherme,-2.4675562050937696,-45.873422851492435
centro novo do maranhao,-2.182731091589331,-46.17464693976399
centro novo do maranhão,-2.1529060947544627,-46.14489747101203
cerejeiras,-13.19266482518763,-60.823111122927415
ceres,-15.303639303509012,-49.60722003897493
cerqueira cesar,-23.03428303546265,-49.16253214445101
cerqueira césar,-23.032865582090537,-49.161076116705715
cerquilho,-23.166261903785387,-47.746688703504226
cerrito,-31.851459616119794,-52.80916530934872
cerro azul,-24.828137537248146,-49.263724610399606
cerro branco,-29.665982595946495,-52.944619125189234
cerro cora,-6.044570927557558,-36.34963365998875
cerro corá,-6.046662465546478,-36.34893869199895
cerro grande,-27.608345624559224,-53.166188436745145
cerro grande do sul,-30.595087652628596,-51.75234557238618
cerro largo,-28.146638263140137,-54.73789166122703
cerro negro,-27.79675749987383,-50.873106458951035
cesario lange,-23.22641820653219,-47.95497531860453
cesário lange,-23.2246987551511,-47.95566072580809
ceu azul,-25.146703880722086,-53.84986221786718
cezarina,-16.979258470150114,-49.770815987506275
cha de alegria,-7.998261914144079,-35.21160652888707
cha grande,-8.239826122375147,-35.4619495356618
cha preta,-9.25672890896978,-36.297553015353174
chacara,-21.672828112287625,-43.220161943778166
chale,-20.045439401812278,-41.69087685460777
chalé,-20.043033173037227,-41.69355144956094
chapada,-28.061001781776675,-53.06614906485782
chapada da natividade,-11.61781043385302,-47.75103782717146
chapada do norte,-17.095485036819124,-42.534277326239774
chapada dos guimaraes,-15.420503378565499,-55.72550495658796
chapada dos guimarães,-15.415919057872353,-55.724751529698054
chapada gaucha,-15.31023550786734,-45.61427845708092
chapada gaúcha,-15.298975698361641,-45.62452193758812
chapadao do ceu,-18.39777856922308,-52.662005886865444
chapadao do lageado,-27.589140044912302,-49.54915653195186
chapadao do sul,-18.798850917854494,-52.629685771697815
chapadinha,-3.740761966508712,-43.36051089473438
chapadão do céu,-18.39434637460778,-52.666309426042474
chapadão do lageado,-27.591347999999947,-49.55531749999996
chapadão do sul,-18.79568584084427,-52.62651180249055
chapeco,-27.09668226891065,-52.62097613371527
chapecó,-27.096185969741722,-52.625193995731465
charqueada,-22.511338452260034,-47.77588446279595
charqueadas,-29.962705328773115,-51.61864268865858
charrua,-27.95372179010726,-52.02551148985606
chaval,-3.036271797499817,-41.2425001741348
chavantes,-23.039678343494334,-49.70849675119676
chaveslandia,-19.043290472034574,-50.48805214021181
chiador,-22.05702012002341,-43.09008428366405
chiapetta,-27.918803188580053,-53.940581538542354
chonim,-18.978562324421873,-44.04679218493516
chopinzinho,-25.854746637852465,-52.529928364679
chorozinho,-4.30979584870399,-38.492865173226576
chorrocho,-8.947945817737466,-39.07692245466618
chorrochó,-8.978551119519182,-39.09767808740854
chui,-33.69024618477329,-53.46160679056914
chupinguaia,-12.554058360685474,-60.90454041261205
chuvisca,-30.74918915031097,-51.98089791935577
chuí,-33.6891290484176,-53.456267397467585
chácara,-21.694181553675648,-43.22032582660687
chã de alegria,-7.995878641438448,-35.209787545021
chã grande,-8.242670310796774,-35.45989218142657
chã preta,-9.257274856621232,-36.29757991509285
cianorte,-23.661548233399802,-52.61100936204495
cicero dantas,-10.593016677890782,-38.38518647881569
cidade gaucha,-23.382308468418294,-52.94056181099697
cidade gaúcha,-23.38463582905094,-52.942832748468504
cidade ocidental,-16.096685465717755,-47.92281360763091
cidelandia,-5.173429220943391,-47.78618987724099
cidreira,-30.181172662096817,-50.21367392192425
cipo,-11.100413846142967,-38.516514070456566
cipolandia,-20.126883258376388,-55.389101299112504
cipotanea,-20.90638367947863,-43.36715239284448
cipotânea,-20.90526811520288,-43.361573155446145
cipó,-11.100652452258467,-38.514675024396475
ciriaco,-28.343838265612323,-51.87462260801716
ciríaco,-28.34232470577903,-51.87602253753121
cisneiros,-21.440712113251724,-42.360000709571196
claraval,-20.401546767101205,-47.28560867100957
claro dos pocoes,-17.040371816146216,-44.20595585514116
claro dos poções,-17.081945429134283,-44.20749588686254
claudia,-11.50373156162008,-54.87558881032882
claudio,-20.43620767423485,-44.760946085949044
claudio manuel,-20.21334359818413,-43.19984080209576
clementina,-21.560184913176553,-50.445800319817664
clevelandia,-26.4074401329755,-52.356531123626155
clevelandia do norte,-11.294461691231309,-52.108398143864584
clevelândia,-26.407650468926036,-52.35859634203166
clevelândia do norte,-26.404507712327838,-52.35250400618206
cláudia,-11.505864169495306,-54.87578617838364
cláudio,-20.4428689435158,-44.76821375100264
coaraci,-14.635923437679326,-39.554724756076475
coari,-4.09374263540589,-63.14117324221791
cocais,-19.85903508686147,-43.45101235762643
cocal,-3.470379266072461,-41.55482822863676
cocal de telha,-4.555008734167915,-41.96958843186378
cocal do sul,-28.598869452541056,-49.325241038079895
cocal dos alves,-3.6046349828890483,-41.45246369082782
cocalinho,-14.39272352478302,-51.002328273511665
cocalzinho de goias,-15.760557738191096,-48.74092489632617
cocalzinho de goiás,-15.781375861689263,-48.77122574351882
cocos,-14.180373776936616,-44.53533989742621
codajas,-3.83857806258407,-62.06891300381548
codajás,-3.840396324928962,-62.06434319442474
codo,-4.462286542626589,-43.89160738921905
codó,-4.459216395971513,-43.89156225722527
coelho neto,-4.254609679921668,-43.015046128566674
coimbra,-20.8580086858265,-42.80168356427292
coite do noia,-9.636905726170335,-36.579648529187374
coivaras,-5.090599187693916,-42.20321237693925
colares,-0.9301039641331698,-48.27792533211408
colatina,-19.529844275091957,-40.63956105804315
colider,-10.807436827208901,-55.457500080397686
colina,-20.71615282762481,-48.5352546233584
colinas,-6.738198769133687,-44.47819791797913
colinas do sul,-14.152288777671899,-48.07454166273169
colinas do tocantins,-8.057911121232676,-48.47981127603574
colmeia,-8.742396456458385,-48.7537200662305
colméia,-8.73707931770071,-48.74958449764157
colniza,-9.447975813043977,-59.269433561058136
colombia,-20.177483522110922,-48.68785735639775
colombo,-25.351423377485197,-49.18943188648105
colonia,-21.6775884564625,-41.88789198252017
colonia castrolanda,-23.702852723394397,-46.401558774842776
colonia do gurgueia,-8.168288712678539,-43.77313959553395
colonia do piaui,-7.22707753088996,-42.17773119428683
colonia leopoldina,-8.918538467996154,-35.72934489568078
colonia nova,-31.666939999999954,-54.070829999999944
colonia vitoria,-26.21860272435942,-51.07472574950486
colonia z-3,-31.69806067785534,-52.15608346812286
colorado,-23.93386711978066,-52.17001700239506
colorado do norte,-10.477499999999964,-56.07805999999994
colorado do oeste,-13.122241076506384,-60.54217610290952
coluna,-18.232094722880387,-42.839864768666565
colíder,-10.792124569514042,-55.45870997098815
colômbia,-20.197082341313884,-48.68437594991493
colônia,-21.675613920706972,-41.87254878961147
colônia do gurguéia,-8.1817722514856,-43.794853794211875
colônia do piauí,-7.223451314269965,-42.1821822880808
colônia leopoldina,-8.919942238081635,-35.73130767687118
colônia nova,-31.666939999999954,-54.070829999999944
colônia vitória,-26.227576948358372,-51.09859512870409
colônia z-3,-31.698243901149368,-52.156108894689055
combinado,-12.815404808095106,-46.550130269666916
comendador gomes,-19.695749118701716,-49.08330142634497
comendador levy gasparian,-22.03394176340095,-43.212766283950224
comendador venancio,-21.180642994286757,-42.10448547736673
comercinho,-16.297166787618565,-41.79417306527857
comodoro,-13.658483691777995,-59.78450051842196
conceicao,-7.5571781110505105,-38.50636918995583
conceicao da aparecida,-21.096650837525882,-46.20421646352761
conceicao da barra,-18.576328381214005,-39.73718423655697
conceicao da barra de minas,-21.129736893317695,-44.47664541261899
conceicao da feira,-12.486653519372721,-38.99291232888439
conceicao da ibitipoca,-16.975562820475375,-41.42995619322306
conceicao das alagoas,-19.920810911424535,-48.37505997564954
conceicao das pedras,-22.15754767756485,-45.45259621596964
conceicao de ipanema,-19.93300201793663,-41.69344462349187
conceicao de jacarei,-23.030248688088022,-44.16385541065653
conceicao de macabu,-22.08743751289857,-41.86767159399782
conceicao do almeida,-12.779262340305587,-39.166855658935155
conceicao do araguaia,-8.25981641791469,-49.29800317727041
conceicao do caninde,-7.903116545431383,-41.56501653036158
conceicao do capim,-19.4973472240845,-41.08406894440443
conceicao do castelo,-20.3624248011177,-41.248641003115324
conceicao do coite,-11.572120889376585,-39.277837374690016
conceicao do jacuipe,-12.331604688704575,-38.766655012325195
conceicao do lago-acu,-3.8361503215323065,-44.88189430686986
conceicao do mato dentro,-19.022922559503414,-43.42363422446116
conceicao do para,-19.752153742737406,-44.89661708542613
conceicao do rio verde,-21.8814762257455,-45.08692506453267
conceicao do tocantins,-12.204695155750711,-47.299490808094184
conceicao dos ouros,-22.41398663794722,-45.796546027221744
conceição,-11.177782774564395,-40.8543212937127
conceição da aparecida,-21.095489189236616,-46.20563326580405
conceição da barra,-18.58078557561861,-39.73970687236902
conceição da barra de minas,-21.12875239735494,-44.473470462766585
conceição da feira,-12.50951550930085,-38.99480080180163
conceição das alagoas,-19.923302356367245,-48.37757828039568
conceição das pedras,-22.162686903075855,-45.44568069617244
conceição de jacareí,-23.02849668035382,-44.16443113666233
conceição de macabu,-22.09272555106657,-41.86474537741981
conceição de tronqueiras,-19.93140931185132,-41.6919104306997
conceição do almeida,-12.774017848094728,-39.170860082143655
conceição do araguaia,-8.253427035914315,-49.29839955041164
conceição do capim,-19.56105812538239,-41.22637656541747
conceição do castelo,-20.35708117171962,-41.25395419465878
conceição do coité,-11.588382360150538,-39.27202718793681
conceição do jacuípe,-12.263177298130028,-38.811714301415236
conceição do lago-açu,-3.843171009845412,-44.89365444484017
conceição do mato dentro,-19.030459281478315,-43.424561026496804
conceição do pará,-19.73828251669167,-44.899580104326105
conceição do rio verde,-21.89142191486761,-45.091457083150125
conceição do tocantins,-12.218375032421068,-47.295009857365216
conceição dos ouros,-22.413574309252823,-45.79615146175366
conchal,-22.338398569332107,-47.1683209783616
conchas,-23.019107243424628,-48.010925171022315
concordia,-27.231458579661965,-52.02565579643883
concordia de mucuri,-17.679719999999975,-41.87638999999996
concordia do para,-1.9963621374233194,-47.944523478874615
concórdia,-27.23161089906001,-52.02831731644733
concórdia do pará,-1.9943666746503088,-47.94560730827011
condado,-7.411476840389726,-35.75064290639331
conde,-11.022077794250388,-37.130409719348776
condeuba,-14.89989882997784,-41.96972490847679
condeúba,-14.900213860479498,-41.97051937895862
condor,-28.207322126321763,-53.48483905681858
conduru,-20.68770402723946,-41.20195222593812
conego marinho,-15.29676264213076,-44.412741237640375
confins,-19.633566024597553,-43.98542970027146
confresa,-10.634294158302133,-51.576750870962
congo,-7.79597240250463,-36.661062379993815
congonhal,-21.941512598680692,-45.7540299565029
congonhas,-20.516501566842578,-43.878316106487624
congonhas do norte,-18.813848577294387,-43.674726518902574
congonhinhas,-23.55352204389659,-50.54992367333535
conquista,-19.932894734007483,-47.55206053235131
conquista d'oeste,-14.551121886390101,-59.53240343967293
conrado,-22.546568160435157,-43.57884543837605
conselheiro lafaiete,-20.65807672905485,-43.78017241246162
conselheiro mairinck,-23.62357588599101,-50.1692756320779
conselheiro pena,-19.16668276412571,-41.472279701955536
conservatoria,-22.286302053891365,-43.92118233761536
conservatória,-22.28639529037941,-43.919400573815935
consolacao,-22.5504409341743,-45.92132028713407
constantina,-27.732242753347034,-52.995015986814785
contagem,-19.9190393518736,-44.057885087693045
contenda,-25.6791347082898,-49.53535670561775
contendas do sincora,-13.759839246311044,-41.07024430697379
contendas do sincorá,-13.833329999999933,-41.133329999999944
coqueiral,-21.15035224188372,-45.2743454052695
coqueiro baixo,-29.18047999999994,-52.089344249999954
coqueiro seco,-9.637658609091483,-35.79101525160084
coqueiros do sul,-28.118553226627522,-52.78245270110114
coracao de jesus,-16.66480122770849,-44.34825458609674
coracao de maria,-12.222106899988114,-38.7607666735577
coração de jesus,-16.639490182531635,-44.33613678474092
coração de maria,-12.248491790078978,-38.74961948429586
corbelia,-24.796141774817812,-53.297761580296495
corbélia,-24.79204379835992,-53.298934935512484
cordeiro,-22.02725682220289,-42.36626102797319
cordeiropolis,-22.481923906468378,-47.45974025268495
cordeiros,-15.039252005168533,-41.93432529834638
cordeirópolis,-22.480961854538894,-47.4610487784714
cordilheira alta,-26.986388569060697,-52.60331776416496
cordisburgo,-19.127109211669413,-44.320277911842396
cordislandia,-21.7919182595283,-45.7009233483534
coreau,-3.559880959498625,-40.658906141659585
coreaú,-3.5928429999794393,-40.68227928949937
coremas,-7.018257570439016,-37.944255498102386
corguinho,-19.81640391234905,-54.88471208002956
coribe,-13.825204329206679,-44.453887836460595
corinto,-18.365786615134017,-44.454401934788834
cornelio procopio,-23.181064673276143,-50.64945125561864
cornélio procópio,-23.18174155256897,-50.65055062534606
coroaci,-18.620027423713275,-42.2826678589023
coroados,-21.35551800562683,-50.284634723537536
coroata,-4.129394110410872,-44.12630249098348
coroatá,-4.129463038727667,-44.12856164595457
coromandel,-18.47627421500296,-47.19682128916466
coronel barros,-28.394830144676845,-54.067637221714705
coronel bicaco,-27.717225147874625,-53.70934274165322
coronel domingos soares,-26.223690950509024,-52.03000071823529
coronel ezequiel,-6.372854249999971,-36.18737049999997
coronel fabriciano,-19.509009469549575,-42.6202516599848
coronel freitas,-26.90692805100056,-52.703130494713605
coronel joao pessoa,-6.265689093152236,-38.44126594152204
coronel joao sa,-10.2861181896329,-37.92578635113678
coronel jose dias,-8.826232629471455,-42.47976066059053
coronel joão sá,-10.286732053027492,-37.93011739486825
coronel macedo,-23.630610844696957,-49.31318912407181
coronel martins,-26.511974068468756,-52.66907658962485
coronel murta,-16.613471172099263,-42.182577574266176
coronel pacheco,-21.593698960032746,-43.27374596923991
coronel pilar,-29.27242765412856,-51.680285961895805
coronel sapucaia,-23.27144471439252,-55.53024329869917
coronel vivida,-25.984865711694923,-52.56760071129752
coronel xavier chaves,-21.023963004825735,-44.22160429714655
